t,x,y,z,vx,vz,roll_deg,pitch_deg,yaw_deg,dist2d,z_err,cross_track,phase,wp,sonar_min,avoid
0.00,0.000,0.000,0.000,0.000,0.000,0.0,0.0,0.0,40.000,3.000,0.000,INIT,1,,0
0.10,0.000,0.000,0.000,0.000,0.000,0.0,0.0,0.0,40.000,3.000,0.000,INIT,1,,0
0.20,0.000,0.000,0.000,0.000,0.000,0.0,0.0,0.0,40.000,3.000,0.000,INIT,1,,0
0.30,0.000,0.000,0.000,0.000,0.000,0.0,0.0,0.0,40.000,3.000,0.000,INIT,1,,0
0.40,0.000,0.000,0.000,0.000,0.000,0.0,0.0,0.0,40.000,3.000,0.000,INIT,1,,0
0.50,0.000,0.000,0.000,0.000,0.000,0.0,0.0,0.0,40.000,3.000,0.000,INIT,1,,0
0.60,0.000,0.000,0.000,0.000,0.000,0.0,0.0,0.0,40.000,3.000,0.000,INIT,1,,0
0.70,0.000,0.000,0.000,0.000,0.000,0.0,0.0,0.0,40.000,3.000,0.000,INIT,1,,0
0.80,0.000,0.000,0.000,0.000,0.000,0.0,0.0,0.0,40.000,3.000,0.000,INIT,1,,0
0.90,0.000,0.000,0.000,0.000,0.000,0.0,0.0,0.0,40.000,3.000,0.000,INIT,1,,0
1.00,0.000,0.000,0.000,0.000,0.000,0.0,0.0,0.0,40.000,3.000,0.000,INIT,1,,0
1.10,0.002,-0.000,-1.944,-0.001,0.053,-0.0,0.7,0.0,39.998,1.056,-0.000,INIT,1,15.66,0
1.20,0.002,-0.000,-1.940,0.000,0.057,-0.0,0.7,0.0,39.998,1.060,-0.000,INIT,1,15.67,0
1.30,0.003,-0.000,-1.934,0.002,0.062,-0.0,0.8,0.0,39.997,1.066,-0.000,NAV,1,15.66,0
1.40,0.003,-0.000,-1.929,0.004,0.065,-0.0,0.9,0.0,39.997,1.071,-0.000,NAV,1,15.66,0
1.50,0.004,-0.000,-1.922,0.004,0.068,0.0,1.1,0.0,39.996,1.078,-0.000,NAV,1,15.66,0
1.60,0.004,-0.000,-1.915,0.005,0.070,0.0,1.3,0.0,39.996,1.085,-0.000,NAV,1,15.66,0
1.70,0.005,-0.000,-1.908,0.004,0.071,0.0,1.5,0.1,39.995,1.092,-0.000,NAV,1,15.66,0
1.80,0.005,-0.000,-1.903,0.004,0.072,0.0,1.6,0.2,39.995,1.097,-0.000,NAV,1,15.66,0
1.90,0.006,-0.001,-1.895,0.003,0.072,0.0,1.6,0.3,39.994,1.105,-0.001,NAV,1,15.66,0
2.00,0.006,-0.001,-1.888,0.004,0.072,0.0,1.4,0.4,39.994,1.112,-0.001,NAV,1,15.65,0
2.10,0.007,-0.001,-1.881,0.005,0.071,0.0,1.2,0.6,39.993,1.119,-0.001,NAV,1,15.65,0
2.20,0.008,-0.001,-1.874,0.008,0.069,0.0,0.8,0.8,39.992,1.126,-0.001,NAV,1,15.65,0
2.30,0.009,-0.002,-1.867,0.013,0.067,0.0,0.3,1.0,39.991,1.133,-0.002,NAV,1,,0
2.40,0.010,-0.002,-1.862,0.017,0.067,-0.0,-0.1,1.2,39.990,1.138,-0.002,NAV,1,,0
2.50,0.012,-0.003,-1.856,0.024,0.066,-0.0,-0.6,1.5,39.988,1.144,-0.003,NAV,1,,0
2.60,0.015,-0.003,-1.849,0.031,0.067,-0.0,-1.0,1.7,39.985,1.151,-0.003,NAV,1,,0
2.70,0.018,-0.003,-1.842,0.038,0.068,-0.0,-1.3,2.0,39.982,1.158,-0.003,NAV,1,,0
2.80,0.022,-0.004,-1.835,0.046,0.069,-0.1,-1.5,2.3,39.978,1.165,-0.004,NAV,1,,0
2.90,0.027,-0.004,-1.828,0.056,0.071,-0.1,-1.6,2.5,39.973,1.172,-0.004,NAV,1,,0
3.00,0.033,-0.004,-1.821,0.065,0.073,-0.1,-1.5,2.8,39.967,1.179,-0.004,NAV,1,,0
3.10,0.038,-0.005,-1.815,0.073,0.074,-0.1,-1.4,3.0,39.962,1.185,-0.005,NAV,1,,0
3.20,0.046,-0.005,-1.807,0.084,0.076,-0.0,-1.1,3.3,39.954,1.193,-0.005,NAV,1,,0
3.30,0.055,-0.005,-1.799,0.094,0.077,-0.0,-0.8,3.5,39.945,1.201,-0.005,NAV,1,,0
3.40,0.065,-0.005,-1.791,0.105,0.077,0.0,-0.4,3.8,39.935,1.209,-0.005,NAV,1,,0
3.50,0.074,-0.005,-1.785,0.113,0.077,0.0,-0.1,4.0,39.926,1.215,-0.005,NAV,1,,0
3.60,0.086,-0.005,-1.778,0.124,0.076,0.1,0.3,4.3,39.914,1.222,-0.005,NAV,1,,0
3.70,0.099,-0.005,-1.770,0.135,0.075,0.1,0.7,4.6,39.901,1.230,-0.005,NAV,1,,0
3.80,0.113,-0.005,-1.763,0.146,0.073,0.1,0.9,4.9,39.887,1.237,-0.005,NAV,1,,0
3.90,0.128,-0.004,-1.756,0.158,0.070,0.1,1.1,5.1,39.872,1.244,-0.004,NAV,1,,0
4.00,0.145,-0.004,-1.750,0.171,0.067,0.1,1.1,5.4,39.855,1.250,-0.004,NAV,1,,0
4.10,0.163,-0.003,-1.743,0.184,0.063,0.1,1.1,5.7,39.837,1.257,-0.003,NAV,1,,0
4.20,0.178,-0.002,-1.739,0.196,0.059,0.1,1.0,5.9,39.822,1.261,-0.002,NAV,1,,0
4.30,0.199,-0.002,-1.734,0.211,0.055,0.0,0.8,6.1,39.801,1.266,-0.002,NAV,1,,0
4.40,0.221,-0.000,-1.729,0.227,0.050,0.0,0.6,6.4,39.779,1.271,-0.000,NAV,1,,0
4.50,0.245,0.001,-1.724,0.244,0.046,-0.0,0.3,6.7,39.755,1.276,0.001,NAV,1,,0
4.60,0.270,0.002,-1.720,0.263,0.042,-0.1,0.0,7.0,39.730,1.280,0.002,NAV,1,,0
4.70,0.297,0.004,-1.716,0.281,0.038,-0.1,-0.2,7.2,39.703,1.284,0.004,NAV,1,,0
4.80,0.326,0.006,-1.712,0.300,0.034,-0.1,-0.4,7.5,39.674,1.288,0.006,NAV,1,,0
4.90,0.357,0.008,-1.708,0.320,0.031,-0.1,-0.5,7.8,39.643,1.292,0.008,NAV,1,,0
5.00,0.390,0.011,-1.705,0.339,0.029,-0.1,-0.5,8.1,39.610,1.295,0.011,NAV,1,,0
5.10,0.418,0.013,-1.703,0.354,0.027,-0.1,-0.5,8.3,39.582,1.297,0.013,NAV,1,,0
5.20,0.455,0.015,-1.700,0.373,0.025,-0.1,-0.4,8.7,39.545,1.300,0.015,NAV,1,,0
5.30,0.493,0.018,-1.697,0.392,0.023,-0.0,-0.3,9.0,39.507,1.303,0.018,NAV,1,,0
5.40,0.533,0.021,-1.695,0.410,0.021,0.0,-0.1,9.3,39.467,1.305,0.021,NAV,1,,0
5.50,0.575,0.025,-1.693,0.427,0.019,0.1,0.1,9.7,39.425,1.307,0.025,NAV,1,,0
5.60,0.619,0.029,-1.691,0.445,0.016,0.1,0.3,10.0,39.381,1.309,0.029,NAV,1,,0
5.70,0.664,0.033,-1.690,0.462,0.013,0.2,0.5,10.3,39.336,1.310,0.033,NAV,1,,0
5.80,0.711,0.038,-1.689,0.478,0.009,0.2,0.6,10.6,39.289,1.311,0.038,NAV,1,,0
5.90,0.760,0.043,-1.689,0.495,0.003,0.2,0.8,10.8,39.240,1.311,0.043,NAV,1,,0
6.00,0.800,0.047,-1.690,0.508,-0.002,0.1,0.8,11.0,39.200,1.310,0.047,NAV,1,,0
6.10,0.852,0.053,-1.691,0.525,-0.009,0.1,0.8,11.2,39.149,1.309,0.053,NAV,1,,0
6.20,0.905,0.059,-1.693,0.541,-0.016,0.0,0.8,11.2,39.095,1.307,0.059,NAV,1,,0
6.30,0.959,0.066,-1.696,0.558,-0.025,-0.1,0.8,11.2,39.041,1.304,0.066,NAV,1,,0
6.40,1.015,0.074,-1.700,0.573,-0.033,-0.1,0.7,10.9,38.985,1.300,0.074,NAV,1,,0
6.50,1.061,0.081,-1.703,0.584,-0.040,-0.2,0.7,10.6,38.939,1.297,0.081,NAV,1,,0
6.60,1.108,0.088,-1.707,0.593,-0.047,-0.3,0.6,10.3,38.892,1.293,0.088,NAV,1,,0
6.70,1.167,0.097,-1.713,0.604,-0.055,-0.3,0.6,9.7,38.833,1.287,0.097,NAV,1,,0
6.80,1.227,0.107,-1.720,0.612,-0.063,-0.3,0.5,9.1,38.773,1.280,0.107,NAV,1,,0
6.90,1.288,0.117,-1.727,0.620,-0.071,-0.3,0.4,8.4,38.712,1.273,0.117,NAV,1,,0
7.00,1.349,0.128,-1.735,0.626,-0.077,-0.3,0.4,7.6,38.651,1.265,0.128,NAV,1,,0
7.10,1.411,0.138,-1.743,0.631,-0.083,-0.2,0.4,6.9,38.589,1.257,0.138,NAV,1,,0
7.20,1.461,0.146,-1.751,0.635,-0.087,-0.2,0.5,6.4,38.539,1.249,0.146,NAV,1,,0
7.30,1.524,0.156,-1.760,0.638,-0.092,-0.1,0.5,6.0,38.476,1.240,0.156,NAV,1,,0
7.40,1.587,0.166,-1.770,0.642,-0.096,-0.0,0.6,5.7,38.413,1.230,0.166,NAV,1,,0
7.50,1.651,0.176,-1.781,0.644,-0.099,0.1,0.8,5.6,38.349,1.219,0.176,NAV,1,,0
7.60,1.715,0.185,-1.792,0.647,-0.103,0.1,0.9,5.7,38.286,1.208,0.185,NAV,1,,0
7.70,1.779,0.193,-1.803,0.648,-0.106,0.2,1.0,6.1,38.222,1.197,0.193,NAV,1,,0
7.80,1.830,0.199,-1.813,0.649,-0.109,0.2,1.1,6.5,38.170,1.187,0.199,NAV,1,13.88,0
7.90,1.894,0.207,-1.825,0.650,-0.113,0.2,1.3,7.3,38.106,1.175,0.207,NAV,1,13.82,0
8.00,1.959,0.214,-1.838,0.651,-0.117,0.2,1.4,8.1,38.042,1.162,0.214,NAV,1,13.76,0
8.10,2.023,0.221,-1.852,0.651,-0.121,0.2,1.4,9.0,37.977,1.148,0.221,NAV,1,13.70,0
8.20,2.088,0.228,-1.866,0.651,-0.125,0.2,1.5,9.9,37.913,1.134,0.228,NAV,1,13.63,0
8.30,2.152,0.235,-1.880,0.651,-0.129,0.2,1.5,10.6,37.848,1.120,0.235,NAV,1,13.57,0
8.40,2.217,0.242,-1.895,0.651,-0.134,0.1,1.5,11.2,37.784,1.105,0.242,NAV,1,13.51,0
8.50,2.268,0.248,-1.907,0.651,-0.137,0.1,1.6,11.6,37.732,1.093,0.248,NAV,1,13.45,0
8.60,2.333,0.256,-1.923,0.652,-0.142,-0.0,1.6,11.8,37.668,1.077,0.256,NAV,1,13.38,0
8.70,2.397,0.265,-1.939,0.652,-0.146,-0.1,1.6,11.7,37.604,1.061,0.265,NAV,1,13.32,0
8.80,2.461,0.274,-1.956,0.653,-0.150,-0.1,1.6,11.4,37.540,1.044,0.274,NAV,1,13.26,0
8.90,2.526,0.284,-1.973,0.654,-0.153,-0.2,1.6,10.9,37.476,1.027,0.284,NAV,1,13.19,0
9.00,2.590,0.294,-1.990,0.654,-0.156,-0.2,1.7,10.1,37.412,1.010,0.294,NAV,1,13.12,0
9.10,2.654,0.305,-2.008,0.654,-0.159,-0.2,1.7,9.3,37.348,0.992,0.305,NAV,1,13.05,0
9.20,2.705,0.314,-2.022,0.655,-0.160,-0.2,1.8,8.7,37.296,0.978,0.314,NAV,1,12.99,0
9.30,2.769,0.325,-2.041,0.654,-0.163,-0.2,1.8,7.8,37.233,0.959,0.325,NAV,1,12.93,0
9.40,2.833,0.336,-2.059,0.654,-0.165,-0.2,1.9,7.0,37.169,0.941,0.336,NAV,1,12.86,0
9.50,2.897,0.348,-2.078,0.654,-0.166,-0.2,1.9,6.2,37.105,0.922,0.348,NAV,1,12.79,0
9.60,2.961,0.359,-2.097,0.653,-0.168,-0.2,2.0,5.5,37.041,0.903,0.359,NAV,1,12.73,0
9.70,3.024,0.370,-2.116,0.653,-0.170,-0.2,2.1,4.6,36.977,0.884,0.370,NAV,1,12.66,0
9.80,3.088,0.382,-2.136,0.652,-0.172,-0.2,2.1,3.8,36.914,0.864,0.382,NAV,1,12.60,0
9.90,3.152,0.394,-2.155,0.652,-0.174,-0.2,2.2,3.1,36.850,0.845,0.394,NAV,1,12.53,0
10.00,3.216,0.405,-2.175,0.652,-0.176,-0.3,2.2,2.5,36.786,0.825,0.405,NAV,1,12.47,0
10.10,3.267,0.414,-2.192,0.652,-0.177,-0.3,2.3,2.2,36.735,0.808,0.414,NAV,1,12.40,0
10.20,3.332,0.424,-2.212,0.652,-0.179,-0.3,2.3,2.0,36.671,0.788,0.424,NAV,1,12.34,0
10.30,3.396,0.434,-2.233,0.653,-0.181,-0.2,2.3,2.0,36.607,0.767,0.434,NAV,1,12.27,0
10.40,3.460,0.443,-2.254,0.654,-0.184,-0.2,2.4,2.2,36.543,0.746,0.443,NAV,1,12.21,0
10.50,3.524,0.451,-2.275,0.655,-0.186,-0.1,2.4,2.7,36.478,0.725,0.451,NAV,1,12.15,0
10.60,3.589,0.459,-2.296,0.656,-0.189,-0.1,2.4,3.4,36.414,0.704,0.459,NAV,1,12.08,0
10.70,3.653,0.466,-2.318,0.656,-0.191,0.0,2.4,4.2,36.350,0.682,0.466,NAV,1,12.02,0
10.80,3.718,0.473,-2.340,0.656,-0.193,0.1,2.4,5.0,36.286,0.660,0.473,AVOID,1,11.96,1
10.90,3.769,0.479,-2.358,0.655,-0.195,0.2,2.4,5.7,36.234,0.642,0.479,AVOID,1,11.89,1
11.00,3.833,0.485,-2.380,0.650,-0.197,0.2,2.4,6.4,36.170,0.620,0.485,AVOID,1,11.83,1
11.10,3.896,0.492,-2.402,0.642,-0.200,0.3,2.3,7.0,36.107,0.598,0.492,AVOID,1,11.77,1
11.20,3.959,0.499,-2.425,0.631,-0.203,0.3,2.2,7.4,36.045,0.575,0.499,AVOID,1,11.71,1
11.30,4.020,0.506,-2.448,0.619,-0.206,0.2,2.1,7.7,35.984,0.552,0.506,AVOID,1,11.65,1
11.40,4.080,0.514,-2.471,0.605,-0.210,0.1,2.0,7.8,35.924,0.529,0.514,AVOID,1,11.65,1
11.50,4.138,0.521,-2.494,0.591,-0.213,0.1,1.8,7.8,35.866,0.506,0.521,AVOID,1,11.59,1
11.60,4.195,0.528,-2.517,0.576,-0.216,-0.0,1.7,7.8,35.809,0.483,0.528,AVOID,1,11.53,1
11.70,4.240,0.534,-2.536,0.563,-0.218,-0.1,1.5,7.8,35.764,0.464,0.534,AVOID,1,11.48,1
11.80,4.294,0.541,-2.559,0.547,-0.219,-0.1,1.4,7.8,35.710,0.441,0.541,AVOID,1,11.42,1
11.90,4.347,0.547,-2.582,0.531,-0.220,-0.1,1.2,7.8,35.657,0.418,0.547,AVOID,1,11.37,1
12.00,4.399,0.554,-2.605,0.515,-0.221,-0.1,1.1,7.7,35.606,0.395,0.554,AVOID,1,11.31,1
12.10,4.449,0.560,-2.628,0.499,-0.220,-0.1,1.0,7.6,35.556,0.372,0.560,AVOID,1,11.26,1
12.20,4.497,0.566,-2.651,0.482,-0.219,-0.1,0.9,7.5,35.508,0.349,0.566,AVOID,1,11.21,1
12.30,4.543,0.572,-2.674,0.466,-0.218,-0.0,0.8,7.5,35.461,0.326,0.572,AVOID,1,11.16,1
12.40,4.580,0.576,-2.691,0.453,-0.216,0.0,0.8,7.4,35.425,0.309,0.576,AVOID,1,11.12,1
12.50,4.623,0.581,-2.714,0.437,-0.214,0.1,0.7,7.4,35.381,0.286,0.581,AVOID,1,11.07,1
12.60,4.666,0.586,-2.735,0.420,-0.212,0.1,0.7,7.4,35.339,0.265,0.586,AVOID,1,11.03,1
12.70,4.706,0.591,-2.757,0.404,-0.210,0.1,0.7,7.5,35.299,0.243,0.591,AVOID,1,10.99,1
12.80,4.745,0.596,-2.778,0.389,-0.208,0.1,0.6,7.5,35.260,0.222,0.596,AVOID,1,10.95,1
12.90,4.775,0.600,-2.795,0.376,-0.206,0.1,0.6,7.5,35.230,0.205,0.600,AVOID,1,10.91,1
13.00,4.812,0.604,-2.816,0.362,-0.204,0.1,0.6,7.6,35.193,0.184,0.604,AVOID,1,10.87,1
13.10,4.847,0.608,-2.837,0.347,-0.202,0.1,0.5,7.6,35.159,0.163,0.608,AVOID,1,10.84,1
13.20,4.880,0.612,-2.857,0.334,-0.200,0.0,0.5,7.7,35.125,0.143,0.612,AVOID,1,10.80,1
13.30,4.913,0.616,-2.877,0.323,-0.198,-0.0,0.4,7.7,35.093,0.123,0.616,AVOID,1,10.77,1
13.40,4.944,0.620,-2.897,0.312,-0.195,-0.1,0.4,7.7,35.062,0.103,0.620,AVOID,1,10.74,1
13.50,4.974,0.624,-2.916,0.302,-0.192,-0.1,0.3,7.6,35.031,0.084,0.624,AVOID,1,10.71,1
13.60,4.998,0.627,-2.932,0.295,-0.189,-0.1,0.3,7.6,35.008,0.068,0.627,AVOID,1,10.68,1
13.70,5.015,0.629,-2.943,0.290,-0.186,-0.1,0.3,7.6,34.991,0.057,0.629,AVOID,1,10.68,1
13.80,5.043,0.632,-2.962,0.281,-0.182,-0.1,0.3,7.6,34.962,0.038,0.632,AVOID,1,10.65,1
13.90,5.071,0.635,-2.980,0.274,-0.178,-0.1,0.3,7.6,34.935,0.020,0.635,AVOID,1,10.62,1
14.00,5.098,0.639,-2.997,0.268,-0.173,-0.1,0.3,7.6,34.908,0.003,0.639,AVOID,1,10.59,1
14.10,5.124,0.641,-3.014,0.264,-0.168,-0.0,0.3,7.6,34.882,-0.014,0.641,AVOID,1,10.57,1
14.20,5.150,0.644,-3.031,0.261,-0.163,-0.0,0.4,7.6,34.856,-0.031,0.644,AVOID,1,10.54,1
14.30,5.170,0.647,-3.044,0.259,-0.158,0.0,0.4,7.7,34.836,-0.044,0.647,AVOID,1,10.52,1
14.40,5.196,0.650,-3.060,0.260,-0.153,0.1,0.5,7.7,34.810,-0.060,0.650,AVOID,1,10.49,1
14.50,5.222,0.652,-3.075,0.261,-0.147,0.1,0.5,7.8,34.784,-0.075,0.652,AVOID,1,10.46,1
14.60,5.248,0.655,-3.090,0.265,-0.142,0.1,0.6,7.9,34.758,-0.090,0.655,AVOID,1,10.44,1
14.70,5.274,0.658,-3.104,0.271,-0.136,0.1,0.8,8.0,34.732,-0.104,0.658,AVOID,1,10.41,1
14.80,5.296,0.661,-3.115,0.277,-0.131,0.1,0.8,8.0,34.710,-0.115,0.661,AVOID,1,10.39,1
14.90,5.324,0.664,-3.128,0.286,-0.125,0.1,1.0,8.1,34.683,-0.128,0.664,AVOID,1,10.36,1
15.00,5.353,0.667,-3.141,0.297,-0.119,0.1,1.1,8.2,34.654,-0.141,0.667,AVOID,1,10.33,1
15.10,5.382,0.671,-3.153,0.309,-0.113,0.0,1.3,8.3,34.624,-0.153,0.671,AVOID,1,10.30,1
15.20,5.414,0.675,-3.165,0.320,-0.107,-0.0,1.4,8.3,34.593,-0.165,0.675,AVOID,1,10.27,1
15.30,5.446,0.679,-3.176,0.330,-0.101,-0.1,1.5,8.4,34.561,-0.176,0.679,AVOID,1,10.24,1
15.40,5.472,0.682,-3.184,0.337,-0.097,-0.1,1.5,8.4,34.535,-0.184,0.682,AVOID,1,10.20,1
15.50,5.505,0.686,-3.195,0.344,-0.093,-0.1,1.6,8.4,34.501,-0.195,0.686,AVOID,1,10.17,1
15.60,5.540,0.690,-3.205,0.351,-0.089,-0.1,1.5,8.4,34.467,-0.205,0.690,AVOID,1,10.14,1
15.70,5.575,0.695,-3.214,0.358,-0.085,-0.1,1.4,8.4,34.432,-0.214,0.695,AVOID,1,10.10,1
15.80,5.610,0.699,-3.224,0.363,-0.082,-0.1,1.3,8.4,34.397,-0.224,0.699,NAV,1,10.07,0
15.90,5.645,0.704,-3.233,0.348,-0.082,-0.1,1.0,8.4,34.362,-0.233,0.704,NAV,1,10.03,0
16.00,5.679,0.708,-3.241,0.332,-0.082,-0.0,0.7,8.4,34.328,-0.241,0.708,NAV,1,10.00,0
16.10,5.711,0.712,-3.250,0.318,-0.083,-0.0,0.2,8.3,34.296,-0.250,0.712,NAV,1,9.97,0
16.20,5.736,0.715,-3.256,0.308,-0.083,0.0,-0.1,8.3,34.271,-0.256,0.715,NAV,1,9.94,0
16.30,5.766,0.719,-3.265,0.298,-0.082,0.1,-0.6,8.3,34.241,-0.265,0.719,NAV,1,9.91,0
16.40,5.795,0.722,-3.272,0.289,-0.080,0.1,-1.0,8.2,34.212,-0.272,0.722,NAV,1,9.89,0
16.50,5.824,0.726,-3.280,0.282,-0.077,0.1,-1.3,8.2,34.184,-0.280,0.726,NAV,1,9.86,0
16.60,5.851,0.729,-3.286,0.276,-0.073,0.1,-1.5,8.2,34.156,-0.286,0.729,NAV,1,9.84,0
16.70,5.873,0.732,-3.291,0.272,-0.069,0.1,-1.6,8.1,34.134,-0.291,0.732,NAV,1,9.84,0
16.80,5.900,0.736,-3.297,0.269,-0.063,0.1,-1.6,8.1,34.108,-0.297,0.736,AVOID,1,9.81,1
16.90,5.927,0.739,-3.302,0.266,-0.056,0.0,-1.5,8.1,34.081,-0.302,0.739,AVOID,1,9.78,1
17.00,5.953,0.742,-3.307,0.261,-0.050,-0.0,-1.2,8.3,34.055,-0.307,0.742,AVOID,1,9.75,1
17.10,5.979,0.745,-3.311,0.256,-0.044,-0.1,-0.9,8.6,34.029,-0.311,0.745,AVOID,1,9.72,1
17.20,6.004,0.747,-3.315,0.250,-0.039,-0.1,-0.6,8.9,34.004,-0.315,0.747,AVOID,1,9.70,1
17.30,6.029,0.750,-3.318,0.243,-0.034,-0.1,-0.3,9.3,33.979,-0.318,0.750,AVOID,1,9.67,1
17.40,6.048,0.752,-3.321,0.238,-0.031,-0.2,-0.1,9.6,33.960,-0.321,0.752,AVOID,1,9.64,1
17.50,6.072,0.754,-3.324,0.231,-0.029,-0.2,0.2,10.0,33.937,-0.324,0.754,AVOID,1,9.61,1
17.60,6.094,0.756,-3.327,0.225,-0.027,-0.2,0.3,10.4,33.914,-0.327,0.756,AVOID,1,9.59,1
17.70,6.116,0.758,-3.330,0.218,-0.027,-0.2,0.4,10.8,33.892,-0.330,0.758,AVOID,1,9.57,1
17.80,6.138,0.760,-3.332,0.212,-0.027,-0.1,0.4,11.2,33.871,-0.332,0.760,AVOID,1,9.55,1
17.90,6.159,0.761,-3.335,0.206,-0.027,-0.1,0.2,11.5,33.850,-0.335,0.761,AVOID,1,9.53,1
18.00,6.175,0.763,-3.338,0.202,-0.027,-0.1,0.1,11.8,33.833,-0.338,0.763,AVOID,1,9.51,1
18.10,6.195,0.764,-3.340,0.197,-0.028,-0.0,-0.1,12.2,33.813,-0.340,0.764,AVOID,1,9.49,1
18.20,6.215,0.766,-3.343,0.194,-0.028,-0.0,-0.3,12.5,33.794,-0.343,0.766,AVOID,1,9.48,1
18.30,6.234,0.768,-3.346,0.190,-0.028,0.0,-0.6,12.8,33.775,-0.346,0.768,AVOID,1,9.46,1
18.40,6.253,0.769,-3.348,0.188,-0.027,0.0,-0.8,13.1,33.756,-0.348,0.769,AVOID,1,9.44,1
18.50,6.268,0.770,-3.350,0.186,-0.026,0.0,-1.0,13.4,33.741,-0.350,0.770,AVOID,1,9.42,1
18.60,6.287,0.772,-3.352,0.184,-0.024,0.0,-1.1,13.7,33.722,-0.352,0.772,AVOID,1,9.41,1
18.70,6.305,0.774,-3.354,0.182,-0.022,-0.0,-1.2,14.0,33.704,-0.354,0.774,AVOID,1,9.39,1
18.80,6.324,0.775,-3.356,0.180,-0.019,-0.0,-1.2,14.3,33.685,-0.356,0.775,AVOID,1,9.37,1
18.90,6.342,0.777,-3.357,0.179,-0.017,-0.0,-1.1,14.5,33.667,-0.357,0.777,AVOID,1,9.36,1
19.00,6.360,0.779,-3.358,0.177,-0.014,-0.1,-1.0,14.8,33.649,-0.358,0.779,AVOID,1,9.34,1
19.10,6.378,0.780,-3.359,0.175,-0.011,-0.1,-0.9,15.0,33.631,-0.359,0.780,AVOID,1,9.32,1
19.20,6.395,0.782,-3.360,0.173,-0.009,-0.1,-0.7,15.2,33.614,-0.360,0.782,AVOID,1,9.31,1
19.30,6.412,0.784,-3.361,0.170,-0.007,-0.1,-0.5,15.5,33.597,-0.361,0.784,AVOID,1,9.29,1
19.40,6.430,0.785,-3.361,0.168,-0.006,-0.1,-0.3,15.7,33.580,-0.361,0.785,AVOID,1,9.27,1
19.50,6.443,0.786,-3.362,0.165,-0.005,-0.1,-0.2,15.9,33.566,-0.362,0.786,AVOID,1,9.25,1
19.60,6.460,0.788,-3.362,0.163,-0.004,-0.1,-0.1,16.1,33.550,-0.362,0.788,AVOID,1,9.24,1
19.70,6.476,0.789,-3.362,0.160,-0.004,-0.1,-0.0,16.3,33.533,-0.362,0.789,AVOID,1,9.22,1
19.80,6.492,0.791,-3.363,0.157,-0.004,-0.0,0.0,16.5,33.517,-0.363,0.791,AVOID,1,9.20,1
19.90,6.508,0.792,-3.363,0.154,-0.004,-0.0,-0.0,16.7,33.502,-0.363,0.792,AVOID,1,9.19,1
20.00,6.523,0.794,-3.363,0.153,-0.004,-0.0,-0.1,16.8,33.486,-0.363,0.794,AVOID,1,9.19,1
20.10,6.539,0.796,-3.364,0.154,-0.004,0.0,-0.2,16.8,33.470,-0.364,0.796,AVOID,1,9.17,1
20.20,6.551,0.797,-3.364,0.156,-0.004,0.0,-0.3,16.8,33.458,-0.364,0.797,AVOID,1,9.16,1
20.30,6.567,0.799,-3.364,0.159,-0.003,0.0,-0.4,16.8,33.442,-0.364,0.799,AVOID,1,9.14,1
20.40,6.584,0.801,-3.365,0.165,-0.002,0.0,-0.5,16.8,33.426,-0.365,0.801,AVOID,1,9.13,1
20.50,6.600,0.804,-3.365,0.173,-0.001,0.0,-0.5,16.7,33.409,-0.365,0.804,AVOID,1,9.11,1
20.60,6.618,0.807,-3.364,0.182,0.001,0.0,-0.5,16.6,33.392,-0.364,0.807,AVOID,1,9.09,1
20.70,6.637,0.810,-3.364,0.193,0.004,0.0,-0.4,16.5,33.373,-0.364,0.810,AVOID,1,9.08,1
20.80,6.653,0.813,-3.363,0.204,0.006,-0.0,-0.3,16.4,33.357,-0.363,0.813,AVOID,1,9.06,1
20.90,6.673,0.817,-3.363,0.218,0.009,-0.0,-0.2,16.2,33.337,-0.363,0.817,AVOID,1,9.04,1
21.00,6.696,0.821,-3.361,0.234,0.013,-0.0,0.0,16.1,33.314,-0.361,0.821,AVOID,1,9.01,1
21.10,6.710,0.824,-3.361,0.244,0.015,-0.0,0.2,16.0,33.300,-0.361,0.824,AVOID,1,8.99,1
21.20,6.735,0.829,-3.359,0.261,0.018,-0.1,0.4,15.8,33.276,-0.359,0.829,AVOID,1,8.96,1
21.30,6.761,0.835,-3.357,0.275,0.021,-0.1,0.7,15.6,33.249,-0.357,0.835,AVOID,1,8.94,1
21.40,6.789,0.841,-3.355,0.287,0.024,-0.1,0.9,15.4,33.222,-0.355,0.841,AVOID,1,8.91,1
21.50,6.817,0.848,-3.353,0.298,0.025,-0.1,1.0,15.2,33.194,-0.353,0.848,AVOID,1,8.88,1
21.60,6.841,0.853,-3.352,0.306,0.026,-0.1,1.0,15.0,33.170,-0.352,0.853,AVOID,1,8.85,1
21.70,6.871,0.860,-3.350,0.315,0.026,-0.1,1.0,14.8,33.140,-0.350,0.860,AVOID,1,8.81,1
21.80,6.902,0.868,-3.348,0.323,0.025,-0.1,0.8,14.5,33.109,-0.348,0.868,NAV,1,8.78,0
21.90,6.933,0.875,-3.346,0.309,0.022,-0.0,0.6,14.2,33.079,-0.346,0.875,NAV,1,8.75,0
22.00,6.957,0.881,-3.344,0.298,0.018,-0.0,0.2,14.0,33.055,-0.344,0.881,NAV,1,8.75,0
22.10,6.985,0.888,-3.343,0.286,0.014,0.0,-0.3,13.7,33.027,-0.343,0.888,NAV,1,8.72,0
22.20,7.012,0.895,-3.341,0.275,0.011,0.0,-0.8,13.4,33.000,-0.341,0.895,NAV,1,8.69,0
22.30,7.038,0.901,-3.340,0.267,0.009,0.1,-1.4,13.0,32.974,-0.340,0.901,NAV,1,8.67,0
22.40,7.064,0.907,-3.338,0.260,0.008,0.1,-1.9,12.7,32.949,-0.338,0.907,NAV,1,8.65,0
22.50,7.089,0.914,-3.337,0.255,0.009,0.1,-2.2,12.4,32.924,-0.337,0.914,NAV,1,8.63,0
22.60,7.113,0.920,-3.335,0.251,0.012,0.1,-2.4,12.1,32.900,-0.335,0.920,NAV,1,8.61,0
22.70,7.133,0.925,-3.333,0.249,0.015,0.1,-2.5,11.8,32.880,-0.333,0.925,NAV,1,8.58,0
22.80,7.156,0.931,-3.330,0.247,0.019,0.1,-2.5,11.5,32.857,-0.330,0.931,AVOID,1,8.56,1
22.90,7.180,0.937,-3.327,0.245,0.025,0.1,-2.3,11.3,32.833,-0.327,0.937,AVOID,1,8.53,1
23.00,7.204,0.943,-3.323,0.242,0.030,0.0,-1.9,11.2,32.810,-0.323,0.943,AVOID,1,8.51,1
23.10,7.227,0.949,-3.319,0.237,0.035,-0.0,-1.5,11.2,32.787,-0.319,0.949,AVOID,1,8.48,1
23.20,7.245,0.953,-3.315,0.233,0.039,-0.1,-1.2,11.3,32.769,-0.315,0.953,AVOID,1,8.45,1
23.30,7.268,0.958,-3.311,0.227,0.042,-0.1,-0.7,11.4,32.747,-0.311,0.958,AVOID,1,8.42,1
23.40,7.289,0.963,-3.306,0.221,0.044,-0.2,-0.4,11.5,32.725,-0.306,0.963,AVOID,1,8.40,1
23.50,7.306,0.967,-3.303,0.216,0.045,-0.2,-0.1,11.7,32.708,-0.303,0.967,AVOID,1,8.38,1
23.60,7.327,0.971,-3.298,0.209,0.045,-0.2,0.1,11.9,32.687,-0.298,0.971,AVOID,1,8.36,1
23.70,7.347,0.976,-3.294,0.203,0.045,-0.2,0.3,12.2,32.667,-0.294,0.976,AVOID,1,8.34,1
23.80,7.367,0.980,-3.290,0.197,0.043,-0.1,0.3,12.5,32.648,-0.290,0.980,AVOID,1,8.32,1
23.90,7.382,0.983,-3.286,0.193,0.041,-0.1,0.2,12.8,32.633,-0.286,0.983,AVOID,1,8.30,1
24.00,7.401,0.987,-3.282,0.188,0.039,-0.1,0.0,13.1,32.614,-0.282,0.987,AVOID,1,8.28,1
24.10,7.419,0.991,-3.278,0.184,0.037,-0.0,-0.2,13.4,32.596,-0.278,0.991,AVOID,1,8.26,1
24.20,7.436,0.994,-3.275,0.180,0.035,0.0,-0.5,13.6,32.579,-0.275,0.994,AVOID,1,8.25,1
24.30,7.454,0.998,-3.271,0.178,0.034,0.1,-0.8,13.9,32.561,-0.271,0.998,AVOID,1,8.23,1
24.40,7.471,1.002,-3.267,0.176,0.034,0.1,-1.1,14.2,32.544,-0.267,1.002,AVOID,1,8.22,1
24.50,7.488,1.005,-3.264,0.174,0.034,0.1,-1.3,14.4,32.527,-0.264,1.005,AVOID,1,8.22,1
24.60,7.502,1.008,-3.260,0.173,0.034,0.1,-1.5,14.7,32.514,-0.260,1.008,AVOID,1,8.21,1
24.70,7.518,1.012,-3.257,0.172,0.036,0.0,-1.6,14.9,32.497,-0.257,1.012,AVOID,1,8.19,1
24.80,7.535,1.016,-3.252,0.172,0.037,0.0,-1.6,15.2,32.481,-0.252,1.016,AVOID,1,8.18,1
24.90,7.552,1.019,-3.248,0.171,0.040,-0.0,-1.6,15.4,32.464,-0.248,1.019,AVOID,1,8.16,1
25.00,7.568,1.023,-3.243,0.170,0.042,-0.1,-1.5,15.6,32.448,-0.243,1.023,AVOID,1,8.15,1
25.10,7.581,1.026,-3.240,0.169,0.044,-0.1,-1.3,15.8,32.435,-0.240,1.026,AVOID,1,8.13,1
25.20,7.598,1.030,-3.235,0.167,0.046,-0.1,-1.1,16.0,32.419,-0.235,1.030,AVOID,1,8.11,1
25.30,7.614,1.033,-3.230,0.165,0.047,-0.1,-0.8,16.2,32.403,-0.230,1.033,AVOID,1,8.10,1
25.40,7.630,1.037,-3.225,0.162,0.048,-0.1,-0.6,16.3,32.387,-0.225,1.037,AVOID,1,8.08,1
25.50,7.645,1.040,-3.220,0.160,0.049,-0.1,-0.4,16.5,32.371,-0.220,1.040,AVOID,1,8.06,1
25.60,7.661,1.044,-3.215,0.157,0.049,-0.1,-0.2,16.6,32.356,-0.215,1.044,AVOID,1,8.04,1
25.70,7.676,1.047,-3.210,0.154,0.048,-0.1,-0.1,16.8,32.341,-0.210,1.047,AVOID,1,8.03,1
25.80,7.688,1.050,-3.206,0.152,0.048,-0.0,-0.0,16.9,32.329,-0.206,1.050,AVOID,1,8.01,1
25.90,7.703,1.053,-3.202,0.149,0.047,-0.0,-0.0,17.0,32.314,-0.202,1.053,AVOID,1,8.00,1
26.00,7.717,1.057,-3.197,0.148,0.045,0.0,-0.1,17.1,32.300,-0.197,1.057,AVOID,1,7.98,1
26.10,7.729,1.059,-3.193,0.148,0.045,0.0,-0.2,17.1,32.289,-0.193,1.059,AVOID,1,7.97,1
26.20,7.743,1.063,-3.189,0.150,0.044,0.1,-0.3,17.1,32.274,-0.189,1.063,AVOID,1,7.96,1
26.30,7.758,1.066,-3.184,0.154,0.043,0.1,-0.5,17.1,32.260,-0.184,1.066,AVOID,1,7.94,1
26.40,7.773,1.070,-3.180,0.160,0.043,0.1,-0.6,17.0,32.245,-0.180,1.070,AVOID,1,7.93,1
26.50,7.789,1.075,-3.175,0.168,0.044,0.1,-0.7,17.0,32.229,-0.175,1.075,AVOID,1,7.91,1
26.60,7.806,1.079,-3.171,0.178,0.045,0.0,-0.7,16.9,32.212,-0.171,1.079,AVOID,1,7.90,1
26.70,7.820,1.083,-3.167,0.187,0.046,0.0,-0.7,16.8,32.198,-0.167,1.083,AVOID,1,7.88,1
26.80,7.838,1.088,-3.162,0.200,0.048,0.0,-0.6,16.7,32.180,-0.162,1.088,AVOID,1,7.86,1
26.90,7.858,1.094,-3.157,0.215,0.050,-0.0,-0.5,16.5,32.160,-0.157,1.094,AVOID,1,7.84,1
27.00,7.875,1.099,-3.153,0.228,0.052,-0.0,-0.3,16.4,32.143,-0.153,1.099,AVOID,1,7.84,1
27.10,7.898,1.105,-3.147,0.246,0.055,-0.1,-0.1,16.3,32.121,-0.147,1.105,AVOID,1,7.82,1
27.20,7.923,1.112,-3.142,0.262,0.057,-0.1,0.1,16.1,32.096,-0.142,1.112,AVOID,1,7.79,1
27.30,7.949,1.120,-3.136,0.276,0.059,-0.1,0.4,16.0,32.071,-0.136,1.120,AVOID,1,7.77,1
27.40,7.976,1.128,-3.130,0.288,0.059,-0.1,0.6,15.8,32.044,-0.130,1.128,AVOID,1,7.74,1
27.50,8.004,1.136,-3.125,0.299,0.059,-0.1,0.7,15.6,32.016,-0.125,1.136,AVOID,1,7.71,1
27.60,8.028,1.143,-3.120,0.307,0.058,-0.1,0.7,15.4,31.993,-0.120,1.143,AVOID,1,7.68,1
27.70,8.058,1.152,-3.115,0.316,0.057,-0.1,0.7,15.2,31.963,-0.115,1.152,AVOID,1,7.65,1
27.80,8.088,1.161,-3.110,0.325,0.054,-0.0,0.5,15.0,31.933,-0.110,1.161,NAV,1,7.62,0
27.90,8.119,1.170,-3.105,0.312,0.048,-0.0,0.3,14.7,31.902,-0.105,1.170,NAV,1,7.59,0
28.00,8.148,1.179,-3.100,0.298,0.042,0.0,-0.1,14.4,31.874,-0.100,1.179,NAV,1,7.56,0
28.10,8.171,1.185,-3.097,0.289,0.037,0.1,-0.5,14.2,31.851,-0.097,1.185,NAV,1,7.53,0
28.20,8.192,1.192,-3.094,0.280,0.033,0.1,-1.0,13.9,31.830,-0.094,1.192,NAV,1,7.50,0
28.30,8.219,1.200,-3.090,0.272,0.029,0.1,-1.5,13.6,31.804,-0.090,1.200,NAV,1,7.48,0
28.40,8.244,1.209,-3.087,0.265,0.027,0.1,-2.0,13.2,31.779,-0.087,1.209,NAV,1,7.45,0
28.50,8.269,1.217,-3.083,0.260,0.026,0.1,-2.4,12.9,31.754,-0.083,1.217,NAV,1,7.43,0
28.60,8.294,1.225,-3.079,0.256,0.027,0.1,-2.6,12.5,31.730,-0.079,1.225,NAV,1,7.41,0
28.70,8.313,1.231,-3.076,0.253,0.029,0.1,-2.7,12.2,31.711,-0.076,1.231,NAV,1,7.39,0
28.80,8.337,1.239,-3.072,0.251,0.032,0.1,-2.6,11.8,31.688,-0.072,1.239,AVOID,1,7.36,1
28.90,8.360,1.247,-3.067,0.249,0.036,0.1,-2.4,11.5,31.664,-0.067,1.247,AVOID,1,7.34,1
29.00,8.379,1.253,-3.063,0.246,0.039,0.0,-2.2,11.3,31.646,-0.063,1.253,AVOID,1,7.31,1
29.10,8.402,1.260,-3.058,0.241,0.043,-0.0,-1.8,11.2,31.623,-0.058,1.260,AVOID,1,7.31,1
29.20,8.425,1.268,-3.053,0.236,0.046,-0.1,-1.3,11.1,31.600,-0.053,1.268,AVOID,1,7.28,1
29.30,8.447,1.275,-3.048,0.230,0.048,-0.1,-0.9,11.1,31.578,-0.048,1.275,AVOID,1,7.26,1
29.40,8.469,1.281,-3.043,0.224,0.049,-0.2,-0.5,11.1,31.557,-0.043,1.281,AVOID,1,7.23,1
29.50,8.486,1.286,-3.039,0.218,0.049,-0.2,-0.2,11.2,31.540,-0.039,1.286,AVOID,1,7.21,1
29.60,8.507,1.293,-3.034,0.212,0.048,-0.2,0.0,11.3,31.520,-0.034,1.293,AVOID,1,7.19,1
29.70,8.527,1.298,-3.029,0.206,0.046,-0.1,0.2,11.5,31.500,-0.029,1.298,AVOID,1,7.16,1
29.80,8.546,1.304,-3.025,0.200,0.044,-0.1,0.2,11.6,31.481,-0.025,1.304,AVOID,1,7.14,1
29.90,8.565,1.310,-3.021,0.194,0.041,-0.0,0.1,11.8,31.462,-0.021,1.310,AVOID,1,7.12,1
30.00,8.584,1.315,-3.017,0.190,0.038,0.0,-0.0,12.0,31.444,-0.017,1.315,AVOID,1,7.11,1
30.10,8.598,1.319,-3.014,0.186,0.035,0.1,-0.2,12.2,31.430,-0.014,1.319,AVOID,1,7.09,1
30.20,8.616,1.325,-3.011,0.183,0.032,0.1,-0.5,12.4,31.412,-0.011,1.325,AVOID,1,7.07,1
30.30,8.633,1.330,-3.007,0.180,0.030,0.1,-0.8,12.5,31.395,-0.007,1.330,AVOID,1,7.06,1
30.40,8.650,1.335,-3.004,0.178,0.029,0.2,-1.1,12.7,31.378,-0.004,1.335,AVOID,1,7.04,1
30.50,8.664,1.339,-3.001,0.177,0.028,0.2,-1.3,12.9,31.365,-0.001,1.339,AVOID,1,7.02,1
30.60,8.681,1.344,-2.998,0.176,0.028,0.1,-1.5,13.1,31.348,0.002,1.344,AVOID,1,7.01,1
30.70,8.698,1.349,-2.995,0.175,0.028,0.1,-1.6,13.2,31.331,0.005,1.349,AVOID,1,6.99,1
30.80,8.714,1.354,-2.992,0.174,0.029,0.1,-1.6,13.4,31.315,0.008,1.354,AVOID,1,7.00,1
30.90,8.731,1.359,-2.988,0.173,0.030,0.0,-1.6,13.5,31.299,0.012,1.359,AVOID,1,6.98,1
31.00,8.744,1.363,-2.985,0.172,0.031,-0.0,-1.5,13.6,31.286,0.015,1.363,AVOID,1,6.96,1
31.10,8.760,1.369,-2.982,0.171,0.033,-0.1,-1.3,13.7,31.270,0.018,1.369,AVOID,1,6.95,1
31.20,8.776,1.374,-2.978,0.169,0.034,-0.1,-1.1,13.9,31.254,0.022,1.374,AVOID,1,6.93,1
31.30,8.793,1.379,-2.974,0.167,0.034,-0.1,-0.9,14.0,31.238,0.026,1.379,AVOID,1,6.91,1
31.40,8.808,1.383,-2.971,0.165,0.035,-0.1,-0.6,14.0,31.222,0.029,1.383,AVOID,1,6.89,1
31.50,8.821,1.387,-2.968,0.163,0.035,-0.1,-0.4,14.1,31.210,0.032,1.387,AVOID,1,6.89,1
31.60,8.836,1.392,-2.964,0.160,0.034,-0.1,-0.3,14.2,31.195,0.036,1.392,AVOID,1,6.87,1
31.70,8.851,1.397,-2.961,0.157,0.033,-0.0,-0.1,14.2,31.180,0.039,1.397,AVOID,1,6.86,1
31.80,8.866,1.401,-2.958,0.154,0.032,-0.0,-0.1,14.3,31.165,0.042,1.401,AVOID,1,6.84,1
31.90,8.878,1.405,-2.955,0.152,0.030,0.0,-0.0,14.3,31.154,0.045,1.405,AVOID,1,6.83,1
32.00,8.893,1.410,-2.952,0.151,0.028,0.1,-0.1,14.3,31.139,0.048,1.410,AVOID,1,6.81,1
32.10,8.907,1.414,-2.950,0.151,0.027,0.1,-0.2,14.3,31.125,0.050,1.414,AVOID,1,6.80,1
32.20,8.922,1.419,-2.947,0.153,0.025,0.1,-0.3,14.3,31.111,0.053,1.419,AVOID,1,6.78,1
32.30,8.936,1.424,-2.944,0.157,0.024,0.1,-0.4,14.3,31.096,0.056,1.424,AVOID,1,6.77,1
32.40,8.952,1.429,-2.942,0.163,0.024,0.1,-0.5,14.2,31.081,0.058,1.429,AVOID,1,6.75,1
32.50,8.964,1.433,-2.940,0.169,0.023,0.1,-0.6,14.2,31.069,0.060,1.433,AVOID,1,6.74,1
32.60,8.981,1.438,-2.937,0.179,0.023,0.1,-0.6,14.1,31.052,0.063,1.438,AVOID,1,6.72,1
32.70,8.998,1.444,-2.935,0.190,0.024,0.0,-0.6,14.0,31.035,0.065,1.444,AVOID,1,6.71,1
32.80,9.013,1.449,-2.933,0.201,0.024,0.0,-0.5,14.0,31.020,0.067,1.449,AVOID,1,6.69,1
32.90,9.033,1.455,-2.930,0.215,0.025,-0.0,-0.4,13.9,31.001,0.070,1.455,AVOID,1,6.67,1
33.00,9.055,1.462,-2.927,0.232,0.026,-0.1,-0.2,13.7,30.980,0.073,1.462,AVOID,1,6.65,1
33.10,9.078,1.469,-2.924,0.249,0.027,-0.1,-0.0,13.6,30.957,0.076,1.469,AVOID,1,6.63,1
33.20,9.103,1.476,-2.922,0.265,0.028,-0.1,0.2,13.4,30.933,0.078,1.476,AVOID,1,6.60,1
33.30,9.123,1.483,-2.920,0.276,0.028,-0.1,0.4,13.3,30.912,0.080,1.483,AVOID,1,6.57,1
33.40,9.151,1.491,-2.917,0.289,0.027,-0.1,0.6,13.1,30.885,0.083,1.491,AVOID,1,6.55,1
33.50,9.179,1.499,-2.915,0.300,0.025,-0.1,0.8,12.9,30.857,0.085,1.499,AVOID,1,6.52,1
33.60,9.208,1.508,-2.913,0.310,0.022,-0.1,0.8,12.6,30.829,0.087,1.508,AVOID,1,6.49,1
33.70,9.239,1.517,-2.912,0.319,0.018,-0.0,0.8,12.4,30.799,0.088,1.517,AVOID,1,6.49,1
33.80,9.264,1.525,-2.911,0.326,0.014,-0.0,0.7,12.2,30.774,0.089,1.525,NAV,1,6.46,0
33.90,9.294,1.534,-2.910,0.315,0.008,0.0,0.5,11.9,30.744,0.090,1.534,NAV,1,6.43,0
34.00,9.324,1.543,-2.910,0.300,0.000,0.0,0.1,11.6,30.715,0.090,1.543,NAV,1,6.41,0
34.10,9.352,1.552,-2.910,0.288,-0.007,0.1,-0.3,11.3,30.687,0.090,1.552,NAV,1,6.35,0
34.20,9.379,1.560,-2.911,0.277,-0.013,0.1,-0.8,10.9,30.661,0.089,1.560,NAV,1,6.32,0
34.30,9.400,1.567,-2.912,0.270,-0.016,0.1,-1.2,10.7,30.640,0.088,1.567,NAV,1,6.30,0
34.40,9.426,1.575,-2.913,0.263,-0.019,0.1,-1.7,10.4,30.615,0.087,1.575,NAV,1,6.28,0
34.50,9.451,1.584,-2.914,0.258,-0.021,0.1,-2.0,10.1,30.590,0.086,1.584,NAV,1,6.26,0
34.60,9.475,1.592,-2.915,0.253,-0.020,0.1,-2.2,9.8,30.566,0.085,1.592,NAV,1,6.23,0
34.70,9.499,1.600,-2.916,0.250,-0.018,0.1,-2.3,9.5,30.543,0.084,1.600,NAV,1,6.21,0
34.80,9.523,1.608,-2.916,0.248,-0.015,0.0,-2.2,9.3,30.519,0.084,1.608,NAV,1,6.19,0
34.90,9.542,1.614,-2.917,0.246,-0.012,-0.0,-2.0,9.1,30.501,0.083,1.614,AVOID,1,6.17,1
35.00,9.566,1.622,-2.917,0.243,-0.008,-0.1,-1.7,8.9,30.477,0.083,1.622,AVOID,1,6.14,1
35.10,9.589,1.629,-2.917,0.239,-0.005,-0.1,-1.3,8.8,30.455,0.083,1.629,AVOID,1,6.12,1
35.20,9.612,1.637,-2.917,0.233,-0.003,-0.2,-0.9,8.8,30.432,0.083,1.637,AVOID,1,6.09,1
35.30,9.634,1.644,-2.917,0.227,-0.001,-0.2,-0.5,8.8,30.411,0.083,1.644,AVOID,1,6.07,1
35.40,9.647,1.648,-2.917,0.223,-0.000,-0.2,-0.3,8.8,30.398,0.083,1.648,AVOID,1,6.04,1
35.50,9.668,1.654,-2.917,0.217,-0.000,-0.2,0.0,8.9,30.377,0.083,1.654,AVOID,1,6.02,1
35.60,9.689,1.661,-2.917,0.211,-0.001,-0.1,0.3,9.0,30.357,0.083,1.661,AVOID,1,6.02,1
35.70,9.709,1.667,-2.917,0.205,-0.003,-0.1,0.4,9.1,30.337,0.083,1.667,AVOID,1,5.98,1
35.80,9.728,1.673,-2.918,0.199,-0.005,-0.0,0.4,9.3,30.318,0.082,1.673,AVOID,1,5.98,1
35.90,9.743,1.678,-2.918,0.195,-0.007,0.0,0.3,9.4,30.303,0.082,1.678,AVOID,1,5.95,1
36.00,9.762,1.683,-2.919,0.190,-0.010,0.1,0.2,9.6,30.285,0.081,1.683,AVOID,1,5.93,1
36.10,9.780,1.689,-2.921,0.186,-0.012,0.1,-0.1,9.8,30.267,0.079,1.689,AVOID,1,5.92,1
36.20,9.794,1.693,-2.922,0.183,-0.014,0.1,-0.3,9.9,30.253,0.078,1.693,AVOID,1,5.90,1
36.30,9.811,1.699,-2.923,0.180,-0.016,0.2,-0.6,10.1,30.236,0.077,1.699,AVOID,1,5.88,1
36.40,9.829,1.704,-2.924,0.178,-0.017,0.2,-0.8,10.2,30.219,0.076,1.704,AVOID,1,5.86,1
36.50,9.846,1.710,-2.926,0.176,-0.017,0.1,-1.1,10.4,30.203,0.074,1.710,AVOID,1,5.89,1
36.60,9.863,1.715,-2.927,0.175,-0.017,0.1,-1.3,10.5,30.186,0.073,1.715,AVOID,1,5.87,1
36.70,9.876,1.720,-2.928,0.174,-0.016,0.1,-1.4,10.6,30.173,0.072,1.720,AVOID,1,5.85,1
36.80,9.893,1.725,-2.929,0.173,-0.015,0.0,-1.4,10.8,30.157,0.071,1.725,AVOID,1,5.84,1
36.90,9.909,1.731,-2.930,0.172,-0.013,-0.0,-1.4,10.9,30.141,0.070,1.731,AVOID,1,5.82,1
37.00,9.926,1.736,-2.931,0.171,-0.012,-0.1,-1.2,11.0,30.124,0.069,1.736,AVOID,1,5.80,1
37.10,9.942,1.741,-2.932,0.170,-0.010,-0.1,-1.1,11.1,30.108,0.068,1.741,AVOID,1,5.78,1
37.20,9.958,1.746,-2.933,0.168,-0.008,-0.1,-0.9,11.2,30.092,0.067,1.746,AVOID,1,5.76,1
37.30,9.971,1.751,-2.933,0.167,-0.007,-0.1,-0.7,11.2,30.080,0.067,1.751,AVOID,1,5.74,1
37.40,9.987,1.756,-2.933,0.165,-0.006,-0.1,-0.4,11.3,30.064,0.067,1.756,AVOID,1,5.73,1
37.50,10.003,1.761,-2.934,0.162,-0.006,-0.1,-0.2,11.4,30.049,0.066,1.761,AVOID,1,5.71,1
37.60,10.018,1.766,-2.934,0.159,-0.006,-0.1,-0.1,11.4,30.034,0.066,1.766,AVOID,1,5.69,1
37.70,10.030,1.770,-2.935,0.157,-0.006,-0.0,0.0,11.5,30.022,0.065,1.770,AVOID,1,5.68,1
37.80,10.045,1.774,-2.936,0.154,-0.007,0.0,0.1,11.5,30.007,0.064,1.774,AVOID,1,5.66,1
37.90,10.060,1.779,-2.936,0.152,-0.008,0.1,0.1,11.6,29.993,0.064,1.779,AVOID,1,5.65,1
38.00,10.074,1.784,-2.937,0.150,-0.009,0.1,0.1,11.6,29.979,0.063,1.784,AVOID,1,5.65,1
38.10,10.089,1.789,-2.938,0.151,-0.010,0.1,-0.0,11.6,29.965,0.062,1.789,AVOID,1,5.63,1
38.20,10.100,1.792,-2.939,0.152,-0.011,0.1,-0.1,11.6,29.954,0.061,1.792,AVOID,1,5.62,1
38.30,10.115,1.797,-2.940,0.155,-0.012,0.1,-0.3,11.6,29.939,0.060,1.797,AVOID,1,5.60,1
38.40,10.130,1.802,-2.941,0.161,-0.012,0.1,-0.4,11.6,29.924,0.059,1.802,AVOID,1,5.59,1
38.50,10.146,1.808,-2.942,0.168,-0.011,0.1,-0.5,11.5,29.909,0.058,1.808,AVOID,1,5.57,1
38.60,10.162,1.813,-2.943,0.178,-0.010,0.0,-0.5,11.5,29.893,0.057,1.813,AVOID,1,5.56,1
38.70,10.180,1.819,-2.944,0.189,-0.009,-0.0,-0.5,11.4,29.876,0.056,1.819,AVOID,1,5.54,1
38.80,10.195,1.823,-2.945,0.199,-0.008,-0.0,-0.4,11.4,29.861,0.055,1.823,AVOID,1,5.52,1
38.90,10.215,1.829,-2.945,0.214,-0.006,-0.1,-0.3,11.3,29.841,0.055,1.829,AVOID,1,5.51,1
39.00,10.236,1.836,-2.946,0.230,-0.004,-0.1,-0.1,11.2,29.820,0.054,1.836,AVOID,1,5.48,1
39.10,10.259,1.843,-2.946,0.247,-0.002,-0.1,0.2,11.1,29.798,0.054,1.843,AVOID,1,5.46,1
39.20,10.279,1.848,-2.946,0.260,-0.000,-0.1,0.4,11.0,29.779,0.054,1.848,AVOID,1,5.44,1
39.30,10.305,1.856,-2.946,0.275,0.001,-0.1,0.6,10.8,29.753,0.054,1.856,AVOID,1,5.41,1
39.40,10.332,1.863,-2.947,0.287,0.002,-0.1,0.9,10.7,29.726,0.053,1.863,AVOID,1,5.39,1
39.50,10.360,1.871,-2.947,0.299,0.001,-0.1,1.0,10.4,29.699,0.053,1.871,AVOID,1,5.36,1
39.60,10.390,1.879,-2.947,0.309,-0.000,-0.0,1.1,10.2,29.670,0.053,1.879,AVOID,1,5.33,1
39.70,10.420,1.888,-2.948,0.318,-0.003,-0.0,1.1,10.0,29.640,0.052,1.888,AVOID,1,5.31,1
39.80,10.451,1.896,-2.949,0.326,-0.006,0.0,1.0,9.7,29.609,0.051,1.896,AVOID,1,5.28,1
39.90,10.477,1.903,-2.950,0.318,-0.010,0.1,0.8,9.5,29.585,0.050,1.903,NAV,1,5.25,0
40.00,10.507,1.911,-2.952,0.303,-0.017,0.1,0.4,9.1,29.555,0.048,1.911,NAV,1,5.22,0
40.10,10.535,1.920,-2.954,0.291,-0.023,0.1,-0.0,8.8,29.527,0.046,1.920,NAV,1,5.20,0
40.20,10.563,1.928,-2.956,0.280,-0.028,0.1,-0.6,8.5,29.500,0.044,1.928,NAV,1,5.18,0
40.30,10.584,1.934,-2.959,0.272,-0.031,0.1,-1.0,8.3,29.479,0.041,1.934,NAV,1,5.15,0
40.40,10.610,1.942,-2.961,0.265,-0.034,0.1,-1.5,8.0,29.454,0.039,1.942,NAV,1,5.13,0
40.50,10.636,1.950,-2.964,0.259,-0.034,0.1,-1.9,7.7,29.429,0.036,1.950,NAV,1,5.12,0
40.60,10.661,1.957,-2.966,0.255,-0.033,0.0,-2.1,7.4,29.405,0.034,1.957,NAV,1,5.10,0
40.70,10.685,1.965,-2.969,0.251,-0.031,0.0,-2.2,7.2,29.381,0.031,1.965,NAV,1,5.07,0
40.80,10.710,1.973,-2.970,0.249,-0.027,-0.0,-2.2,6.9,29.357,0.030,1.973,NAV,1,5.07,0
40.90,10.729,1.978,-2.972,0.248,-0.023,-0.1,-2.0,6.8,29.338,0.028,1.978,AVOID,1,5.00,1
41.00,10.753,1.986,-2.973,0.247,-0.019,-0.1,-1.7,6.6,29.314,0.027,1.986,AVOID,1,4.97,1
41.10,10.777,1.993,-2.974,0.246,-0.014,-0.1,-1.3,6.6,29.291,0.026,1.993,AVOID,1,4.95,1
41.20,10.796,1.998,-2.974,0.247,-0.010,-0.2,-1.0,6.6,29.272,0.026,1.998,AVOID,1,4.92,1
41.30,10.820,2.005,-2.975,0.249,-0.006,-0.2,-0.5,6.6,29.248,0.025,2.005,AVOID,1,4.90,1
41.40,10.845,2.011,-2.975,0.252,-0.003,-0.2,-0.0,6.8,29.224,0.025,2.011,AVOID,1,4.92,1
41.50,10.870,2.018,-2.976,0.256,-0.001,-0.1,0.4,6.9,29.200,0.024,2.018,AVOID,1,4.90,1
41.60,10.895,2.024,-2.976,0.262,0.000,-0.1,0.8,7.2,29.175,0.024,2.024,AVOID,1,4.87,1
41.70,10.921,2.030,-2.976,0.270,0.001,-0.0,1.1,7.4,29.150,0.024,2.030,AVOID,1,4.84,1
41.80,10.943,2.035,-2.977,0.277,0.000,0.0,1.2,7.6,29.129,0.023,2.035,AVOID,1,4.81,1
41.90,10.970,2.042,-2.977,0.287,-0.001,0.1,1.3,7.9,29.102,0.023,2.042,AVOID,1,4.77,1
42.00,10.999,2.048,-2.978,0.296,-0.003,0.1,1.3,8.2,29.073,0.022,2.048,AVOID,1,4.74,1
42.10,11.028,2.055,-2.979,0.304,-0.006,0.1,1.2,8.5,29.045,0.021,2.055,AVOID,1,4.71,1
42.20,11.052,2.060,-2.980,0.310,-0.008,0.1,1.0,8.7,29.021,0.020,2.060,AVOID,1,4.68,1
42.30,11.077,2.066,-2.981,0.315,-0.011,0.1,0.8,8.9,28.997,0.019,2.066,AVOID,1,4.64,1
42.40,11.108,2.073,-2.983,0.322,-0.015,0.1,0.5,8.9,28.966,0.017,2.073,AVOID,1,4.64,1
42.50,11.133,2.079,-2.985,0.327,-0.018,0.1,0.2,8.9,28.942,0.015,2.079,AVOID,1,4.61,1
42.60,11.165,2.086,-2.987,0.333,-0.020,0.0,-0.1,8.9,28.910,0.013,2.086,AVOID,1,4.64,1
42.70,11.198,2.094,-2.989,0.339,-0.022,0.0,-0.4,8.7,28.878,0.011,2.094,AVOID,1,4.61,1
42.80,11.232,2.102,-2.990,0.344,-0.023,-0.0,-0.7,8.6,28.845,0.010,2.102,AVOID,1,4.58,1
42.90,11.266,2.110,-2.992,0.350,-0.022,-0.0,-0.8,8.4,28.812,0.008,2.110,AVOID,1,4.55,1
43.00,11.293,2.116,-2.994,0.353,-0.022,-0.1,-0.9,8.3,28.785,0.006,2.116,AVOID,1,4.52,1
43.10,11.328,2.124,-2.995,0.357,-0.020,-0.1,-1.0,8.1,28.751,0.005,2.124,AVOID,1,4.48,1
43.20,11.363,2.132,-2.996,0.360,-0.017,-0.0,-0.9,7.9,28.716,0.004,2.132,AVOID,1,4.43,1
43.30,11.398,2.140,-2.997,0.362,-0.014,-0.0,-0.8,7.8,28.682,0.003,2.140,AVOID,1,4.38,1
43.40,11.434,2.148,-2.998,0.363,-0.011,0.0,-0.6,7.6,28.647,0.002,2.148,AVOID,1,4.34,1
43.50,11.470,2.156,-2.999,0.363,-0.009,0.0,-0.5,7.4,28.612,0.001,2.156,AVOID,1,4.29,1
43.60,11.498,2.162,-2.999,0.363,-0.007,0.1,-0.3,7.4,28.584,0.001,2.162,AVOID,1,4.27,1
43.70,11.534,2.169,-3.000,0.362,-0.005,0.1,-0.2,7.5,28.549,0.000,2.169,AVOID,1,4.28,1
43.80,11.569,2.176,-3.000,0.361,-0.004,0.1,-0.0,7.6,28.514,0.000,2.176,AVOID,1,4.24,1
43.90,11.605,2.183,-3.000,0.360,-0.003,0.1,0.1,7.7,28.479,-0.000,2.183,AVOID,1,4.20,1
44.00,11.640,2.191,-3.001,0.358,-0.004,0.1,0.1,7.7,28.445,-0.001,2.191,AVOID,1,4.16,1
44.10,11.675,2.198,-3.001,0.356,-0.004,0.1,0.1,7.6,28.410,-0.001,2.198,AVOID,1,4.13,1
44.20,11.703,2.204,-3.002,0.355,-0.005,0.0,0.0,7.5,28.383,-0.002,2.204,AVOID,1,4.09,1
44.30,11.738,2.211,-3.002,0.353,-0.007,0.0,-0.1,7.4,28.349,-0.002,2.211,AVOID,1,4.06,1
44.40,11.772,2.219,-3.003,0.352,-0.008,0.0,-0.2,7.2,28.315,-0.003,2.219,AVOID,1,4.03,1
44.50,11.800,2.225,-3.003,0.350,-0.009,0.0,-0.3,7.1,28.288,-0.003,2.225,AVOID,1,3.99,1
44.60,11.834,2.232,-3.004,0.349,-0.010,-0.0,-0.5,6.9,28.254,-0.004,2.232,AVOID,1,3.96,1
44.70,11.868,2.239,-3.005,0.348,-0.011,-0.0,-0.6,6.8,28.221,-0.005,2.239,AVOID,1,3.93,1
44.80,11.902,2.246,-3.005,0.347,-0.011,0.0,-0.8,6.6,28.187,-0.005,2.246,AVOID,1,3.90,1
44.90,11.936,2.253,-3.006,0.346,-0.011,0.0,-0.9,6.4,28.154,-0.006,2.253,AVOID,1,3.86,1
45.00,11.970,2.260,-3.007,0.344,-0.010,0.0,-0.9,6.3,28.121,-0.007,2.260,AVOID,1,3.83,1
45.10,12.004,2.267,-3.007,0.343,-0.009,0.0,-0.9,6.1,28.087,-0.007,2.267,AVOID,1,3.80,1
45.20,12.038,2.274,-3.007,0.342,-0.007,0.0,-0.9,6.2,28.054,-0.007,2.274,AVOID,1,3.80,1
45.30,12.065,2.279,-3.007,0.341,-0.006,0.0,-0.8,6.3,28.028,-0.007,2.279,AVOID,1,3.76,1
45.40,12.098,2.285,-3.007,0.339,-0.004,0.0,-0.7,6.4,27.995,-0.007,2.285,AVOID,1,3.73,1
45.50,12.132,2.292,-3.007,0.336,-0.003,0.0,-0.6,6.4,27.962,-0.007,2.292,AVOID,1,3.69,1
45.60,12.165,2.298,-3.007,0.334,-0.001,0.0,-0.5,6.4,27.930,-0.007,2.298,AVOID,1,3.65,1
45.70,12.197,2.305,-3.007,0.331,-0.000,0.0,-0.5,6.4,27.898,-0.007,2.305,AVOID,1,3.62,1
45.80,12.223,2.310,-3.007,0.329,0.000,0.0,-0.4,6.3,27.873,-0.007,2.310,AVOID,1,3.59,1
45.90,12.256,2.316,-3.006,0.326,0.001,0.0,-0.3,6.1,27.841,-0.006,2.316,AVOID,1,3.55,1
46.00,12.287,2.323,-3.006,0.323,0.001,0.0,-0.3,6.0,27.810,-0.006,2.323,AVOID,1,3.52,1
46.10,12.319,2.329,-3.006,0.320,0.000,0.0,-0.3,5.9,27.779,-0.006,2.329,AVOID,1,3.49,1
46.20,12.344,2.334,-3.006,0.318,-0.000,0.0,-0.3,5.7,27.754,-0.006,2.334,AVOID,1,3.46,1
46.30,12.375,2.340,-3.006,0.315,-0.001,0.0,-0.4,5.6,27.724,-0.006,2.340,AVOID,1,3.43,1
46.40,12.400,2.345,-3.006,0.313,-0.001,0.0,-0.4,5.5,27.699,-0.006,2.345,AVOID,1,3.40,1
46.50,12.431,2.351,-3.005,0.310,-0.002,0.1,-0.5,5.3,27.669,-0.005,2.351,AVOID,1,3.37,1
46.60,12.455,2.356,-3.005,0.308,-0.002,0.1,-0.6,5.2,27.645,-0.005,2.356,AVOID,1,3.34,1
46.70,12.479,2.361,-3.005,0.307,-0.003,0.1,-0.6,5.1,27.622,-0.005,2.361,AVOID,1,3.34,1
46.80,12.510,2.367,-3.005,0.304,-0.003,0.1,-0.7,4.9,27.592,-0.005,2.367,AVOID,1,3.31,1
46.90,12.540,2.373,-3.005,0.302,-0.003,0.1,-0.8,4.8,27.563,-0.005,2.373,AVOID,1,3.28,1
47.00,12.569,2.378,-3.005,0.300,-0.002,0.1,-0.8,4.8,27.534,-0.005,2.378,AVOID,1,3.25,1
47.10,12.599,2.383,-3.005,0.299,-0.002,0.0,-0.8,4.9,27.505,-0.005,2.383,AVOID,1,3.27,1
47.20,12.628,2.389,-3.004,0.297,-0.001,0.0,-0.8,4.9,27.476,-0.004,2.389,AVOID,1,3.28,1
47.30,12.652,2.393,-3.004,0.296,-0.001,0.0,-0.8,4.9,27.453,-0.004,2.393,AVOID,1,3.25,1
47.40,12.681,2.399,-3.004,0.294,0.000,0.0,-0.7,4.9,27.424,-0.004,2.399,AVOID,1,3.22,1
47.50,12.704,2.403,-3.003,0.293,0.001,-0.0,-0.7,4.8,27.402,-0.003,2.403,AVOID,1,3.19,1
47.60,12.733,2.408,-3.003,0.291,0.002,-0.0,-0.6,4.7,27.373,-0.003,2.408,AVOID,1,3.16,1
47.70,12.761,2.414,-3.002,0.288,0.002,-0.0,-0.6,4.5,27.345,-0.002,2.414,AVOID,1,3.13,1
47.80,12.790,2.419,-3.002,0.286,0.003,-0.0,-0.5,4.4,27.317,-0.002,2.419,AVOID,1,3.10,1
47.90,12.818,2.424,-3.001,0.284,0.003,0.0,-0.5,4.3,27.290,-0.001,2.424,AVOID,1,3.07,1
48.00,12.846,2.430,-3.001,0.281,0.003,0.0,-0.4,4.2,27.263,-0.001,2.430,AVOID,1,3.04,1
48.10,12.868,2.434,-3.000,0.279,0.003,0.0,-0.4,4.0,27.241,-0.000,2.434,AVOID,1,3.02,1
48.20,12.896,2.439,-3.000,0.277,0.003,0.1,-0.4,3.9,27.214,0.000,2.439,AVOID,1,2.99,1
48.30,12.923,2.444,-2.999,0.274,0.002,0.1,-0.4,3.8,27.187,0.001,2.444,AVOID,1,2.96,1
48.40,12.950,2.449,-2.999,0.272,0.002,0.1,-0.5,3.7,27.161,0.001,2.449,AVOID,1,2.94,1
48.50,12.977,2.454,-2.999,0.270,0.001,0.1,-0.5,3.5,27.135,0.001,2.454,AVOID,1,2.91,1
48.60,12.998,2.458,-2.998,0.268,0.001,0.1,-0.6,3.5,27.114,0.002,2.458,AVOID,1,2.88,1
48.70,13.024,2.462,-2.998,0.266,0.001,0.1,-0.6,3.5,27.088,0.002,2.462,AVOID,1,2.85,1
48.80,13.051,2.467,-2.998,0.264,0.000,0.1,-0.7,3.5,27.062,0.002,2.467,AVOID,1,2.82,1
48.90,13.077,2.471,-2.997,0.262,0.000,0.0,-0.7,3.5,27.036,0.003,2.471,AVOID,1,2.80,1
49.00,13.103,2.476,-2.997,0.260,0.000,0.0,-0.7,3.5,27.011,0.003,2.476,AVOID,1,2.80,1
49.10,13.123,2.479,-2.997,0.259,0.000,0.0,-0.7,3.4,26.991,0.003,2.479,AVOID,1,2.77,1
49.20,13.149,2.484,-2.996,0.257,0.001,-0.0,-0.8,3.4,26.966,0.004,2.484,AVOID,1,2.74,1
49.30,13.174,2.488,-2.996,0.255,0.001,-0.0,-0.7,3.3,26.941,0.004,2.488,AVOID,1,2.72,1
49.40,13.194,2.492,-2.995,0.254,0.001,-0.0,-0.7,3.2,26.921,0.005,2.492,AVOID,1,2.69,1
49.50,13.214,2.496,-2.995,0.252,0.002,-0.0,-0.7,3.1,26.902,0.005,2.496,AVOID,1,2.67,1
49.60,13.239,2.500,-2.995,0.250,0.002,-0.0,-0.7,3.0,26.877,0.005,2.500,AVOID,1,2.65,1
49.70,13.264,2.504,-2.994,0.248,0.003,0.0,-0.6,2.9,26.853,0.006,2.504,AVOID,1,2.64,1
49.80,13.289,2.509,-2.994,0.246,0.003,0.0,-0.6,2.7,26.829,0.006,2.509,AVOID,1,2.64,1
49.90,13.313,2.513,-2.993,0.244,0.003,0.0,-0.5,2.6,26.805,0.007,2.513,AVOID,1,2.63,1
50.00,13.332,2.516,-2.993,0.242,0.003,0.0,-0.5,2.5,26.786,0.007,2.516,AVOID,1,2.62,1
50.10,13.356,2.520,-2.992,0.240,0.003,0.1,-0.5,2.4,26.763,0.008,2.520,AVOID,1,2.59,1
50.20,13.380,2.524,-2.992,0.238,0.003,0.1,-0.5,2.3,26.740,0.008,2.524,AVOID,1,2.57,1
50.30,13.403,2.528,-2.991,0.236,0.003,0.1,-0.5,2.2,26.716,0.009,2.528,AVOID,1,2.54,1
50.40,13.422,2.532,-2.991,0.235,0.002,0.1,-0.5,2.1,26.698,0.009,2.532,AVOID,1,2.52,1
50.50,13.445,2.535,-2.990,0.233,0.002,0.1,-0.5,2.1,26.675,0.010,2.535,AVOID,1,2.49,1
50.60,13.469,2.539,-2.990,0.231,0.002,0.1,-0.5,2.2,26.653,0.010,2.539,AVOID,1,2.46,1
50.70,13.491,2.543,-2.989,0.229,0.002,0.0,-0.5,2.2,26.630,0.011,2.543,AVOID,1,2.46,1
50.80,13.514,2.546,-2.989,0.228,0.001,0.0,-0.6,2.2,26.608,0.011,2.546,AVOID,1,2.44,1
50.90,13.532,2.549,-2.989,0.226,0.001,0.0,-0.6,2.1,26.590,0.011,2.549,AVOID,1,2.41,1
51.00,13.555,2.553,-2.988,0.224,0.001,0.0,-0.6,2.0,26.568,0.012,2.553,AVOID,1,2.39,1
51.10,13.577,2.557,-2.988,0.223,0.001,-0.0,-0.7,2.0,26.547,0.012,2.557,AVOID,1,2.37,1
51.20,13.594,2.560,-2.988,0.221,0.001,-0.0,-0.7,1.9,26.529,0.012,2.560,AVOID,1,2.34,1
51.30,13.616,2.563,-2.987,0.220,0.001,-0.0,-0.7,1.8,26.508,0.013,2.563,AVOID,1,2.33,1
51.40,13.638,2.567,-2.987,0.218,0.001,-0.0,-0.7,1.7,26.487,0.013,2.567,AVOID,1,2.33,1
51.50,13.660,2.570,-2.987,0.217,0.002,0.0,-0.7,1.6,26.465,0.013,2.570,AVOID,1,2.32,1
51.60,13.681,2.574,-2.986,0.215,0.002,0.0,-0.7,1.5,26.444,0.014,2.574,AVOID,1,2.32,1
51.70,13.698,2.577,-2.986,0.214,0.002,0.0,-0.6,1.4,26.428,0.014,2.577,AVOID,1,2.32,1
51.80,13.720,2.580,-2.985,0.213,0.002,0.0,-0.6,1.3,26.407,0.015,2.580,AVOID,1,2.31,1
51.90,13.741,2.583,-2.985,0.211,0.002,0.1,-0.6,1.2,26.386,0.015,2.583,AVOID,1,2.31,1
52.00,13.762,2.587,-2.985,0.210,0.003,0.1,-0.5,1.0,26.366,0.015,2.587,AVOID,1,2.30,1
52.10,13.778,2.589,-2.984,0.209,0.003,0.1,-0.5,1.0,26.349,0.016,2.589,AVOID,1,2.30,1
52.20,13.799,2.593,-2.984,0.207,0.003,0.1,-0.5,0.9,26.329,0.016,2.593,AVOID,1,2.29,1
52.30,13.820,2.596,-2.983,0.206,0.002,0.1,-0.5,0.8,26.309,0.017,2.596,AVOID,1,2.29,1
52.40,13.840,2.599,-2.983,0.204,0.002,0.1,-0.5,0.7,26.289,0.017,2.599,AVOID,1,2.29,1
52.50,13.860,2.602,-2.982,0.203,0.002,0.1,-0.5,0.5,26.269,0.018,2.602,AVOID,1,2.28,1
52.60,13.881,2.605,-2.982,0.202,0.002,0.0,-0.5,0.5,26.249,0.018,2.605,AVOID,1,2.28,1
52.70,13.897,2.607,-2.982,0.201,0.002,0.0,-0.5,0.5,26.233,0.018,2.607,AVOID,1,2.29,1
52.80,13.917,2.610,-2.981,0.200,0.002,0.0,-0.5,0.6,26.213,0.019,2.610,AVOID,1,2.30,1
52.90,13.937,2.613,-2.981,0.199,0.001,-0.0,-0.5,0.6,26.194,0.019,2.613,AVOID,1,2.31,1
53.00,13.957,2.616,-2.981,0.199,0.001,-0.0,-0.5,0.5,26.174,0.019,2.616,AVOID,1,2.31,1
53.10,13.976,2.619,-2.981,0.198,0.001,-0.0,-0.6,0.5,26.155,0.019,2.619,AVOID,1,2.31,1
53.20,13.992,2.621,-2.980,0.198,0.001,-0.0,-0.6,0.4,26.139,0.020,2.621,AVOID,1,2.31,1
53.30,14.012,2.624,-2.980,0.197,0.001,-0.0,-0.6,0.3,26.120,0.020,2.624,AVOID,1,2.31,1
53.40,14.032,2.627,-2.980,0.197,0.001,-0.0,-0.6,0.2,26.101,0.020,2.627,AVOID,1,2.30,1
53.50,14.051,2.630,-2.979,0.196,0.001,0.0,-0.6,0.1,26.082,0.021,2.630,AVOID,1,2.30,1
53.60,14.071,2.632,-2.979,0.196,0.002,0.0,-0.6,0.0,26.062,0.021,2.632,AVOID,1,2.29,1
53.70,14.087,2.635,-2.979,0.195,0.002,0.0,-0.6,-0.1,26.047,0.021,2.635,AVOID,1,2.29,1
53.80,14.106,2.637,-2.978,0.195,0.002,0.1,-0.5,-0.2,26.028,0.022,2.637,AVOID,1,2.28,1
53.90,14.126,2.640,-2.978,0.194,0.002,0.1,-0.5,-0.3,26.009,0.022,2.640,AVOID,1,2.28,1
54.00,14.145,2.643,-2.978,0.194,0.002,0.1,-0.5,-0.4,25.990,0.022,2.643,AVOID,1,2.27,1
54.10,14.160,2.645,-2.977,0.193,0.002,0.1,-0.5,-0.5,25.975,0.023,2.645,AVOID,1,2.27,1
54.20,14.180,2.647,-2.977,0.192,0.002,0.1,-0.5,-0.6,25.956,0.023,2.647,AVOID,1,2.26,1
54.30,14.199,2.650,-2.977,0.192,0.002,0.1,-0.5,-0.7,25.937,0.023,2.650,AVOID,1,2.26,1
54.40,14.218,2.652,-2.976,0.191,0.002,0.1,-0.5,-0.8,25.918,0.024,2.652,AVOID,1,2.25,1
54.50,14.237,2.655,-2.976,0.190,0.002,0.0,-0.5,-0.9,25.899,0.024,2.655,AVOID,1,2.25,1
54.60,14.252,2.657,-2.976,0.190,0.001,0.0,-0.5,-1.0,25.884,0.024,2.657,AVOID,1,2.24,1
54.70,14.271,2.659,-2.975,0.189,0.001,0.0,-0.5,-1.0,25.866,0.025,2.659,AVOID,1,2.24,1
54.80,14.290,2.661,-2.975,0.189,0.001,0.0,-0.5,-1.0,25.847,0.025,2.661,AVOID,1,2.24,1
54.90,14.309,2.663,-2.975,0.188,0.001,-0.0,-0.5,-0.9,25.828,0.025,2.663,AVOID,1,2.26,1
55.00,14.328,2.666,-2.975,0.188,0.001,-0.0,-0.5,-0.9,25.810,0.025,2.666,AVOID,1,2.27,1
55.10,14.343,2.667,-2.974,0.188,0.001,-0.0,-0.5,-0.8,25.795,0.026,2.667,AVOID,1,2.27,1
55.20,14.362,2.669,-2.974,0.188,0.001,-0.0,-0.5,-0.9,25.777,0.026,2.669,AVOID,1,2.28,1
55.30,14.381,2.671,-2.974,0.188,0.001,-0.0,-0.5,-0.9,25.758,0.026,2.671,AVOID,1,2.27,1
55.40,14.400,2.674,-2.974,0.187,0.001,-0.0,-0.5,-1.0,25.740,0.026,2.674,AVOID,1,2.27,1
55.50,14.418,2.676,-2.973,0.187,0.001,0.0,-0.5,-1.1,25.721,0.027,2.676,AVOID,1,2.27,1
55.60,14.433,2.677,-2.973,0.187,0.001,0.0,-0.5,-1.2,25.706,0.027,2.677,AVOID,1,2.27,1
55.70,14.452,2.680,-2.973,0.187,0.001,0.0,-0.5,-1.3,25.688,0.027,2.680,AVOID,1,2.26,1
55.80,14.471,2.682,-2.973,0.187,0.001,0.1,-0.5,-1.4,25.670,0.027,2.682,AVOID,1,2.26,1
55.90,14.490,2.684,-2.972,0.186,0.001,0.1,-0.5,-1.5,25.651,0.028,2.684,AVOID,1,2.25,1
56.00,14.505,2.685,-2.972,0.186,0.001,0.1,-0.5,-1.6,25.636,0.028,2.685,AVOID,1,2.24,1
56.10,14.523,2.687,-2.972,0.186,0.001,0.1,-0.5,-1.7,25.618,0.028,2.687,AVOID,1,2.24,1
56.20,14.542,2.689,-2.972,0.185,0.001,0.1,-0.5,-1.8,25.600,0.028,2.689,AVOID,1,2.23,1
56.30,14.560,2.691,-2.971,0.185,0.001,0.1,-0.5,-1.9,25.582,0.029,2.691,AVOID,1,2.22,1
56.40,14.575,2.693,-2.971,0.185,0.001,0.1,-0.5,-2.0,25.567,0.029,2.693,AVOID,1,2.22,1
56.50,14.594,2.695,-2.971,0.184,0.001,0.0,-0.5,-2.1,25.549,0.029,2.695,AVOID,1,2.21,1
56.60,14.612,2.697,-2.971,0.184,0.001,0.0,-0.5,-2.2,25.531,0.029,2.697,AVOID,1,2.21,1
56.70,14.623,2.698,-2.971,0.183,0.000,0.0,-0.5,-2.3,25.520,0.029,2.698,AVOID,1,2.20,1
56.80,14.642,2.700,-2.971,0.183,0.000,0.0,-0.5,-2.4,25.502,0.029,2.700,AVOID,1,2.19,1
56.90,14.660,2.702,-2.970,0.183,0.000,-0.0,-0.5,-2.5,25.484,0.030,2.702,AVOID,1,2.19,1
57.00,14.678,2.703,-2.970,0.182,0.000,-0.0,-0.5,-2.6,25.465,0.030,2.703,AVOID,1,2.19,1
57.10,14.693,2.705,-2.970,0.182,0.000,-0.0,-0.5,-2.7,25.451,0.030,2.705,AVOID,1,2.18,1
57.20,14.711,2.706,-2.970,0.182,0.000,-0.0,-0.5,-2.8,25.433,0.030,2.706,AVOID,1,2.17,1
57.30,14.730,2.708,-2.970,0.181,-0.000,-0.0,-0.5,-2.9,25.415,0.030,2.708,AVOID,1,2.17,1
57.40,14.748,2.710,-2.970,0.181,-0.000,0.0,-0.5,-3.0,25.397,0.030,2.710,AVOID,1,2.16,1
57.50,14.762,2.711,-2.969,0.181,-0.000,0.0,-0.5,-3.0,25.383,0.031,2.711,AVOID,1,2.16,1
57.60,14.781,2.712,-2.969,0.180,-0.000,0.0,-0.5,-3.0,25.365,0.031,2.712,AVOID,1,2.16,1
57.70,14.799,2.713,-2.969,0.180,0.000,0.0,-0.5,-2.8,25.347,0.031,2.713,AVOID,1,2.17,1
57.80,14.817,2.714,-2.969,0.180,0.000,0.0,-0.5,-2.7,25.329,0.031,2.714,AVOID,1,2.18,1
57.90,14.835,2.715,-2.969,0.180,0.000,0.0,-0.5,-2.5,25.311,0.031,2.715,AVOID,1,2.20,1
58.00,14.849,2.716,-2.969,0.180,0.000,0.0,-0.5,-2.4,25.297,0.031,2.716,AVOID,1,2.22,1
58.10,14.867,2.717,-2.968,0.180,0.000,0.0,-0.5,-2.2,25.279,0.032,2.717,AVOID,1,2.24,1
58.20,14.885,2.718,-2.968,0.180,0.000,0.0,-0.5,-2.0,25.261,0.032,2.718,AVOID,1,2.25,1
58.30,14.903,2.719,-2.968,0.180,0.000,0.0,-0.5,-2.0,25.244,0.032,2.719,AVOID,1,2.27,1
58.40,14.921,2.721,-2.968,0.180,0.000,0.0,-0.5,-1.9,25.226,0.032,2.721,AVOID,1,2.27,1
58.50,14.939,2.722,-2.968,0.180,0.000,-0.0,-0.4,-2.0,25.208,0.032,2.722,AVOID,1,2.27,1
58.60,14.957,2.723,-2.968,0.180,0.000,-0.0,-0.4,-2.0,25.190,0.032,2.723,AVOID,1,2.27,1
58.70,14.972,2.724,-2.967,0.180,0.000,-0.0,-0.4,-2.1,25.176,0.033,2.724,AVOID,1,2.27,1
58.80,14.990,2.725,-2.967,0.180,0.000,0.0,-0.4,-2.2,25.158,0.033,2.725,AVOID,1,2.26,1
58.90,15.008,2.727,-2.967,0.180,-0.000,0.0,-0.4,-2.3,25.140,0.033,2.727,AVOID,1,2.25,1
59.00,15.026,2.728,-2.967,0.180,-0.000,0.0,-0.4,-2.4,25.122,0.033,2.728,AVOID,1,2.25,1
59.10,15.044,2.729,-2.967,0.180,-0.000,0.0,-0.4,-2.5,25.104,0.033,2.729,AVOID,1,2.24,1
59.20,15.062,2.730,-2.967,0.180,-0.000,0.0,-0.5,-2.7,25.087,0.033,2.730,AVOID,1,2.23,1
59.30,15.081,2.732,-2.967,0.180,-0.001,0.0,-0.5,-2.8,25.069,0.033,2.732,AVOID,1,2.22,1
59.40,15.095,2.733,-2.967,0.180,-0.001,0.0,-0.5,-2.9,25.054,0.033,2.733,AVOID,1,2.21,1
59.50,15.113,2.734,-2.967,0.180,-0.001,0.0,-0.5,-3.0,25.037,0.033,2.734,AVOID,1,2.20,1
59.60,15.131,2.735,-2.966,0.180,-0.001,0.0,-0.5,-3.1,25.019,0.034,2.735,AVOID,1,2.20,1
59.70,15.149,2.736,-2.966,0.180,-0.001,0.0,-0.5,-3.2,25.001,0.034,2.736,AVOID,1,2.20,1
59.80,15.164,2.737,-2.966,0.179,-0.001,0.0,-0.5,-3.3,24.987,0.034,2.737,AVOID,1,2.19,1
59.90,15.182,2.738,-2.966,0.179,-0.001,0.0,-0.5,-3.5,24.969,0.034,2.738,AVOID,1,2.18,1
60.00,15.200,2.739,-2.966,0.179,-0.001,0.0,-0.5,-3.6,24.951,0.034,2.739,AVOID,1,2.17,1
60.10,15.218,2.740,-2.966,0.179,-0.001,0.0,-0.5,-3.7,24.933,0.034,2.740,AVOID,1,2.16,1
60.20,15.236,2.741,-2.966,0.178,-0.001,0.0,-0.5,-3.8,24.916,0.034,2.741,AVOID,1,2.15,1
60.30,15.254,2.742,-2.966,0.178,-0.001,0.0,-0.5,-3.9,24.898,0.034,2.742,AVOID,1,2.15,1
60.40,15.272,2.743,-2.966,0.178,-0.001,0.0,-0.5,-4.1,24.880,0.034,2.743,AVOID,1,2.14,1
60.50,15.289,2.744,-2.966,0.177,-0.001,0.0,-0.5,-4.2,24.863,0.034,2.744,AVOID,1,2.13,1
60.60,15.307,2.745,-2.966,0.177,-0.001,0.0,-0.5,-4.3,24.845,0.034,2.745,AVOID,1,2.12,1
60.70,15.321,2.746,-2.966,0.177,-0.001,0.0,-0.5,-4.4,24.831,0.034,2.746,AVOID,1,2.11,1
60.80,15.339,2.747,-2.966,0.176,-0.001,0.0,-0.5,-4.5,24.813,0.034,2.747,AVOID,1,2.11,1
60.90,15.357,2.748,-2.965,0.176,-0.001,0.0,-0.5,-4.6,24.796,0.035,2.748,AVOID,1,2.10,1
61.00,15.375,2.748,-2.965,0.175,-0.001,0.0,-0.5,-4.7,24.778,0.035,2.748,AVOID,1,2.09,1
61.10,15.392,2.749,-2.965,0.175,-0.001,0.0,-0.5,-4.9,24.761,0.035,2.749,AVOID,1,2.08,1
61.20,15.410,2.750,-2.965,0.174,-0.001,0.0,-0.5,-5.0,24.744,0.035,2.750,AVOID,1,2.07,1
61.30,15.424,2.751,-2.965,0.174,-0.001,0.0,-0.5,-5.0,24.730,0.035,2.751,AVOID,1,2.07,1
61.40,15.441,2.751,-2.965,0.173,-0.001,0.0,-0.5,-5.1,24.712,0.035,2.751,AVOID,1,2.06,1
61.50,15.459,2.752,-2.965,0.173,-0.001,0.0,-0.5,-5.0,24.695,0.035,2.752,AVOID,1,2.07,1
61.60,15.476,2.752,-2.965,0.173,-0.001,0.0,-0.5,-4.9,24.678,0.035,2.752,AVOID,1,2.07,1
61.70,15.493,2.752,-2.965,0.172,-0.001,0.0,-0.5,-4.8,24.661,0.035,2.752,AVOID,1,2.08,1
61.80,15.507,2.752,-2.965,0.172,-0.001,0.0,-0.5,-4.6,24.647,0.035,2.752,AVOID,1,2.10,1
61.90,15.525,2.752,-2.965,0.172,-0.001,-0.0,-0.5,-4.5,24.630,0.035,2.752,AVOID,1,2.11,1
62.00,15.542,2.752,-2.965,0.172,-0.001,-0.0,-0.5,-4.3,24.613,0.035,2.752,AVOID,1,2.13,1
62.10,15.559,2.753,-2.965,0.172,-0.001,-0.0,-0.5,-4.1,24.595,0.035,2.753,AVOID,1,2.14,1
62.20,15.573,2.753,-2.965,0.172,-0.001,-0.0,-0.5,-3.9,24.582,0.035,2.753,AVOID,1,2.16,1
62.30,15.590,2.753,-2.965,0.172,-0.001,-0.0,-0.5,-3.7,24.565,0.035,2.753,AVOID,1,2.17,1
62.40,15.607,2.753,-2.965,0.172,-0.001,-0.0,-0.5,-3.5,24.547,0.035,2.753,AVOID,1,2.19,1
62.50,15.625,2.753,-2.965,0.173,-0.001,-0.0,-0.5,-3.3,24.530,0.035,2.753,AVOID,1,2.21,1
62.60,15.642,2.753,-2.965,0.173,-0.001,-0.0,-0.5,-3.1,24.513,0.035,2.753,AVOID,1,2.22,1
62.70,15.659,2.752,-2.965,0.173,-0.001,-0.0,-0.4,-2.9,24.496,0.035,2.752,AVOID,1,2.24,1
62.80,15.677,2.752,-2.965,0.173,-0.001,-0.0,-0.4,-2.7,24.479,0.035,2.752,AVOID,1,2.26,1
62.90,15.694,2.752,-2.965,0.174,-0.001,-0.0,-0.4,-2.6,24.461,0.035,2.752,AVOID,1,2.27,1
63.00,15.711,2.753,-2.965,0.174,-0.001,0.0,-0.4,-2.5,24.444,0.035,2.753,AVOID,1,2.27,1
63.10,15.729,2.753,-2.965,0.175,-0.001,0.0,-0.4,-2.5,24.427,0.035,2.753,AVOID,1,2.28,1
63.20,15.743,2.753,-2.965,0.175,-0.001,0.0,-0.4,-2.6,24.413,0.035,2.753,AVOID,1,2.28,1
63.30,15.761,2.753,-2.965,0.175,-0.001,0.0,-0.4,-2.6,24.395,0.035,2.753,AVOID,1,2.28,1
63.40,15.778,2.754,-2.965,0.176,-0.001,0.0,-0.4,-2.7,24.378,0.035,2.754,AVOID,1,2.27,1
63.50,15.796,2.754,-2.965,0.176,-0.001,0.0,-0.4,-2.8,24.360,0.035,2.754,AVOID,1,2.26,1
63.60,15.813,2.755,-2.965,0.176,-0.001,0.0,-0.4,-2.9,24.343,0.035,2.755,AVOID,1,2.26,1
63.70,15.828,2.755,-2.965,0.176,-0.002,0.0,-0.4,-3.0,24.329,0.035,2.755,AVOID,1,2.24,1
63.80,15.845,2.755,-2.965,0.177,-0.002,0.0,-0.5,-3.2,24.311,0.035,2.755,AVOID,1,2.23,1
63.90,15.859,2.756,-2.965,0.177,-0.002,0.0,-0.5,-3.3,24.297,0.035,2.756,AVOID,1,2.22,1
64.00,15.874,2.756,-2.965,0.177,-0.002,0.0,-0.5,-3.4,24.283,0.035,2.756,AVOID,1,2.21,1
64.10,15.891,2.756,-2.965,0.177,-0.002,0.0,-0.5,-3.5,24.266,0.035,2.756,AVOID,1,2.20,1
64.20,15.909,2.757,-2.965,0.177,-0.002,0.0,-0.5,-3.7,24.248,0.035,2.757,AVOID,1,2.19,1
64.30,15.927,2.757,-2.965,0.177,-0.002,-0.0,-0.5,-3.8,24.231,0.035,2.757,AVOID,1,2.18,1
64.40,15.941,2.757,-2.965,0.177,-0.002,-0.0,-0.5,-3.9,24.217,0.035,2.757,AVOID,1,2.17,1
64.50,15.959,2.758,-2.965,0.177,-0.002,-0.0,-0.5,-4.1,24.199,0.035,2.758,AVOID,1,2.16,1
64.60,15.976,2.758,-2.965,0.176,-0.002,-0.0,-0.5,-4.2,24.181,0.035,2.758,AVOID,1,2.15,1
64.70,15.994,2.758,-2.965,0.176,-0.002,-0.0,-0.5,-4.3,24.164,0.035,2.758,AVOID,1,2.15,1
64.80,16.008,2.758,-2.965,0.176,-0.002,-0.0,-0.5,-4.4,24.150,0.035,2.758,AVOID,1,2.14,1
64.90,16.026,2.759,-2.965,0.176,-0.002,0.0,-0.5,-4.6,24.132,0.035,2.759,AVOID,1,2.13,1
65.00,16.044,2.759,-2.965,0.175,-0.002,0.0,-0.5,-4.7,24.115,0.035,2.759,AVOID,1,2.12,1
65.10,16.061,2.759,-2.965,0.175,-0.002,0.0,-0.5,-4.8,24.097,0.035,2.759,AVOID,1,2.10,1
65.20,16.079,2.759,-2.965,0.175,-0.002,0.0,-0.5,-5.0,24.080,0.035,2.759,AVOID,1,2.09,1
65.30,16.096,2.759,-2.965,0.174,-0.002,0.0,-0.5,-5.1,24.063,0.035,2.759,AVOID,1,2.08,1
65.40,16.114,2.760,-2.965,0.174,-0.002,0.0,-0.5,-5.2,24.045,0.035,2.760,AVOID,1,2.07,1
65.50,16.131,2.760,-2.965,0.173,-0.002,0.0,-0.5,-5.3,24.028,0.035,2.760,AVOID,1,2.07,1
65.60,16.145,2.760,-2.965,0.173,-0.002,0.0,-0.5,-5.3,24.014,0.035,2.760,AVOID,1,2.06,1
65.70,16.162,2.759,-2.965,0.172,-0.002,0.0,-0.5,-5.2,23.997,0.035,2.759,AVOID,1,2.06,1
65.80,16.180,2.759,-2.965,0.172,-0.002,0.0,-0.5,-5.1,23.980,0.035,2.759,AVOID,1,2.07,1
65.90,16.197,2.759,-2.965,0.172,-0.002,0.0,-0.5,-5.0,23.962,0.035,2.759,AVOID,1,2.08,1
66.00,16.214,2.758,-2.965,0.172,-0.002,-0.0,-0.5,-4.8,23.945,0.035,2.758,AVOID,1,2.09,1
66.10,16.231,2.758,-2.965,0.171,-0.002,-0.0,-0.5,-4.7,23.928,0.035,2.758,AVOID,1,2.10,1
66.20,16.248,2.757,-2.965,0.171,-0.002,-0.0,-0.5,-4.5,23.911,0.035,2.757,AVOID,1,2.11,1
66.30,16.266,2.757,-2.965,0.171,-0.002,-0.1,-0.5,-4.3,23.894,0.035,2.757,AVOID,1,2.13,1
66.40,16.279,2.756,-2.965,0.171,-0.002,-0.1,-0.5,-4.1,23.880,0.035,2.756,AVOID,1,2.14,1
66.50,16.296,2.756,-2.965,0.171,-0.002,-0.1,-0.5,-4.0,23.863,0.035,2.756,AVOID,1,2.15,1
66.60,16.314,2.755,-2.965,0.172,-0.002,-0.0,-0.5,-3.8,23.846,0.035,2.755,AVOID,1,2.17,1
66.70,16.331,2.755,-2.965,0.172,-0.002,-0.0,-0.5,-3.6,23.829,0.035,2.755,AVOID,1,2.18,1
66.80,16.344,2.754,-2.965,0.172,-0.002,-0.0,-0.5,-3.4,23.815,0.035,2.754,AVOID,1,2.20,1
66.90,16.362,2.754,-2.965,0.172,-0.001,-0.0,-0.5,-3.3,23.798,0.035,2.754,AVOID,1,2.21,1
67.00,16.379,2.753,-2.965,0.172,-0.001,-0.0,-0.4,-3.2,23.781,0.035,2.753,AVOID,1,2.22,1
67.10,16.396,2.753,-2.965,0.173,-0.001,0.0,-0.4,-3.2,23.764,0.035,2.753,AVOID,1,2.22,1
67.20,16.413,2.753,-2.965,0.173,-0.001,0.0,-0.4,-3.3,23.747,0.035,2.753,AVOID,1,2.22,1
67.30,16.431,2.753,-2.966,0.173,-0.001,0.0,-0.4,-3.3,23.729,0.034,2.753,AVOID,1,2.21,1
67.40,16.445,2.753,-2.966,0.173,-0.002,0.1,-0.4,-3.4,23.716,0.034,2.753,AVOID,1,2.20,1
67.50,16.462,2.753,-2.966,0.173,-0.002,0.1,-0.4,-3.5,23.698,0.034,2.753,AVOID,1,2.19,1
67.60,16.479,2.752,-2.966,0.173,-0.002,0.1,-0.4,-3.7,23.681,0.034,2.752,AVOID,1,2.18,1
67.70,16.497,2.752,-2.966,0.173,-0.002,0.1,-0.4,-3.8,23.664,0.034,2.752,AVOID,1,2.17,1
67.80,16.514,2.752,-2.966,0.173,-0.002,0.0,-0.4,-3.9,23.647,0.034,2.752,AVOID,1,2.16,1
67.90,16.531,2.752,-2.966,0.173,-0.002,0.0,-0.5,-4.1,23.629,0.034,2.752,AVOID,1,2.15,1
68.00,16.549,2.752,-2.966,0.173,-0.002,0.0,-0.5,-4.2,23.612,0.034,2.752,AVOID,1,2.13,1
68.10,16.566,2.752,-2.966,0.173,-0.002,0.0,-0.5,-4.4,23.595,0.034,2.752,AVOID,1,2.12,1
68.20,16.584,2.752,-2.966,0.173,-0.002,-0.0,-0.5,-4.5,23.578,0.034,2.752,AVOID,1,2.11,1
68.30,16.601,2.752,-2.966,0.173,-0.002,-0.0,-0.5,-4.6,23.560,0.034,2.752,AVOID,1,2.10,1
68.40,16.618,2.752,-2.966,0.173,-0.002,-0.0,-0.5,-4.8,23.543,0.034,2.752,AVOID,1,2.10,1
68.50,16.632,2.752,-2.966,0.172,-0.002,-0.0,-0.5,-4.9,23.529,0.034,2.752,AVOID,1,2.09,1
68.60,16.649,2.752,-2.966,0.172,-0.002,-0.0,-0.5,-5.0,23.512,0.034,2.752,AVOID,1,2.08,1
68.70,16.663,2.751,-2.966,0.172,-0.002,-0.0,-0.5,-5.1,23.499,0.034,2.751,AVOID,1,2.07,1
68.80,16.680,2.751,-2.966,0.172,-0.002,-0.0,-0.5,-5.3,23.481,0.034,2.751,AVOID,1,2.05,1
68.90,16.697,2.751,-2.966,0.171,-0.002,0.0,-0.5,-5.4,23.464,0.034,2.751,AVOID,1,2.04,1
69.00,16.715,2.751,-2.966,0.171,-0.002,0.0,-0.5,-5.6,23.447,0.034,2.751,AVOID,1,2.03,1
69.10,16.732,2.750,-2.966,0.170,-0.002,0.0,-0.5,-5.7,23.430,0.034,2.750,AVOID,1,2.02,1
69.20,16.745,2.750,-2.966,0.170,-0.002,0.0,-0.5,-5.8,23.417,0.034,2.750,AVOID,1,2.01,1
69.30,16.762,2.750,-2.967,0.169,-0.002,0.0,-0.5,-5.9,23.400,0.033,2.750,AVOID,1,2.00,1
69.40,16.779,2.750,-2.967,0.169,-0.002,0.0,-0.5,-6.1,23.383,0.033,2.750,AVOID,1,1.99,1
69.50,16.790,2.749,-2.967,0.168,-0.002,0.0,-0.5,-6.1,23.373,0.033,2.749,AVOID,1,1.98,1
69.60,16.806,2.749,-2.967,0.168,-0.002,0.0,-0.5,-6.2,23.356,0.033,2.749,AVOID,1,1.97,1
69.70,16.823,2.749,-2.967,0.167,-0.002,0.0,-0.5,-6.3,23.339,0.033,2.749,AVOID,1,1.97,1
69.80,16.840,2.748,-2.967,0.167,-0.002,0.0,-0.5,-6.2,23.323,0.033,2.748,AVOID,1,1.97,1
69.90,16.857,2.747,-2.967,0.166,-0.002,0.0,-0.5,-6.1,23.306,0.033,2.747,AVOID,1,1.98,1
70.00,16.873,2.747,-2.967,0.166,-0.002,-0.0,-0.5,-6.0,23.289,0.033,2.747,AVOID,1,1.98,1
70.10,16.890,2.746,-2.967,0.166,-0.002,-0.0,-0.5,-5.9,23.273,0.033,2.746,AVOID,1,1.98,1
