t,x,y,z,vx,vz,roll_deg,pitch_deg,yaw_deg,dist2d,z_err,cross_track,phase,wp,sonar_min,avoid
0.00,0.006,-0.000,-1.984,0.003,0.028,0.0,3.2,0.0,39.994,1.016,-0.000,INIT,1,15.66,0
0.10,0.007,-0.000,-1.981,0.001,0.028,0.0,3.3,0.0,39.993,1.019,-0.000,INIT,1,15.66,0
0.20,0.007,-0.000,-1.979,-0.002,0.029,0.0,3.3,0.0,39.993,1.021,-0.000,INIT,1,15.66,0
0.30,0.007,-0.000,-1.976,-0.004,0.029,0.0,3.2,0.0,39.993,1.024,-0.000,INIT,1,15.66,0
0.40,0.006,-0.000,-1.973,-0.006,0.030,0.0,3.0,0.0,39.994,1.027,-0.000,INIT,1,15.66,0
0.50,0.006,-0.000,-1.970,-0.008,0.031,0.0,2.7,0.0,39.994,1.030,-0.000,INIT,1,15.66,0
0.60,0.005,-0.000,-1.966,-0.008,0.033,-0.0,2.3,0.0,39.995,1.034,-0.000,INIT,1,15.66,0
0.70,0.004,-0.000,-1.963,-0.008,0.036,-0.0,1.9,0.0,39.996,1.037,-0.000,INIT,1,15.66,0
0.80,0.004,-0.000,-1.959,-0.007,0.039,-0.0,1.5,0.0,39.996,1.041,-0.000,INIT,1,15.66,0
0.90,0.003,-0.000,-1.955,-0.006,0.043,-0.0,1.2,0.0,39.997,1.045,-0.000,INIT,1,15.66,0
1.00,0.003,-0.000,-1.951,-0.004,0.047,-0.0,0.9,0.0,39.997,1.049,-0.000,INIT,1,15.66,0
1.10,0.003,-0.000,-1.946,-0.000,0.052,-0.0,0.8,0.0,39.997,1.054,-0.000,INIT,1,15.66,0
1.20,0.003,-0.000,-1.941,0.014,0.056,0.0,0.8,0.0,39.997,1.059,-0.000,INIT,1,15.66,0
1.30,0.006,-0.000,-1.935,0.028,0.060,0.0,0.9,0.1,39.994,1.065,-0.000,INIT,1,15.66,0
1.40,0.009,-0.000,-1.929,0.043,0.062,0.0,1.1,0.2,39.991,1.071,-0.000,INIT,1,15.65,0
1.50,0.015,-0.001,-1.923,0.057,0.062,0.0,1.4,0.4,39.985,1.077,-0.001,INIT,1,15.65,0
1.60,0.021,-0.001,-1.917,0.071,0.061,0.0,1.7,0.6,39.979,1.083,-0.001,INIT,1,15.64,0
1.70,0.029,-0.002,-1.911,0.085,0.059,0.0,2.0,0.9,39.971,1.089,-0.002,INIT,1,15.63,0
1.80,0.039,-0.002,-1.906,0.100,0.055,0.0,2.2,1.3,39.961,1.094,-0.002,INIT,1,15.63,0
1.90,0.048,-0.002,-1.902,0.111,0.051,0.0,2.2,1.5,39.952,1.098,-0.002,INIT,1,15.62,0
2.00,0.060,-0.003,-1.898,0.126,0.044,0.0,2.2,1.9,39.940,1.102,-0.003,INIT,1,15.60,0
2.10,0.073,-0.003,-1.895,0.142,0.036,0.0,2.0,2.2,39.927,1.105,-0.003,INIT,1,15.59,0
2.20,0.089,-0.004,-1.892,0.159,0.027,0.0,1.7,2.6,39.911,1.108,-0.004,INIT,1,15.58,0
2.30,0.106,-0.004,-1.890,0.178,0.020,0.0,1.3,2.9,39.894,1.110,-0.004,INIT,1,15.56,0
2.40,0.125,-0.004,-1.889,0.197,0.013,-0.0,0.9,3.3,39.875,1.111,-0.004,INIT,1,15.55,0
2.50,0.141,-0.004,-1.888,0.214,0.009,-0.0,0.5,3.6,39.859,1.112,-0.004,INIT,1,15.53,0
2.60,0.164,-0.004,-1.888,0.236,0.004,-0.0,0.1,3.9,39.836,1.112,-0.004,INIT,1,,0
2.70,0.189,-0.004,-1.887,0.258,0.001,-0.1,-0.2,4.3,39.811,1.113,-0.004,INIT,1,,0
2.80,0.216,-0.003,-1.887,0.280,-0.002,-0.1,-0.5,4.7,39.784,1.113,-0.003,NAV,1,,0
2.90,0.245,-0.003,-1.887,0.303,-0.003,-0.1,-0.6,5.1,39.755,1.113,-0.003,NAV,1,,0
3.00,0.277,-0.002,-1.887,0.325,-0.004,-0.1,-0.6,5.6,39.723,1.113,-0.002,NAV,1,,0
3.10,0.311,-0.002,-1.887,0.347,-0.004,-0.1,-0.5,6.0,39.689,1.113,-0.002,NAV,1,,0
3.20,0.339,-0.001,-1.887,0.364,-0.004,-0.0,-0.3,6.4,39.661,1.113,-0.001,NAV,1,,0
3.30,0.377,-0.000,-1.888,0.384,-0.004,-0.0,-0.0,6.8,39.623,1.112,-0.000,NAV,1,,0
3.40,0.416,0.001,-1.888,0.404,-0.005,0.0,0.3,7.3,39.584,1.112,0.001,NAV,1,,0
3.50,0.458,0.003,-1.889,0.422,-0.005,0.1,0.6,7.8,39.542,1.111,0.003,NAV,1,,0
3.60,0.493,0.004,-1.890,0.437,-0.007,0.1,0.9,8.2,39.507,1.110,0.004,NAV,1,15.20,0
3.70,0.537,0.006,-1.892,0.454,-0.009,0.2,1.2,8.7,39.463,1.108,0.006,NAV,1,15.15,0
3.80,0.584,0.008,-1.894,0.471,-0.012,0.2,1.4,9.2,39.416,1.106,0.008,NAV,1,15.10,0
3.90,0.632,0.010,-1.896,0.489,-0.016,0.2,1.5,9.7,39.368,1.104,0.010,NAV,1,15.05,0
4.00,0.682,0.013,-1.899,0.506,-0.021,0.2,1.5,10.2,39.318,1.101,0.013,NAV,1,15.00,0
4.10,0.724,0.015,-1.902,0.519,-0.025,0.2,1.5,10.6,39.276,1.098,0.015,NAV,1,14.95,0
4.20,0.777,0.019,-1.907,0.537,-0.031,0.1,1.4,11.0,39.223,1.093,0.019,NAV,1,14.95,0
4.30,0.820,0.022,-1.910,0.551,-0.036,0.1,1.3,11.3,39.180,1.090,0.022,NAV,1,14.85,0
4.40,0.876,0.027,-1.916,0.566,-0.042,0.0,1.1,11.6,39.124,1.084,0.027,NAV,1,14.85,0
4.50,0.934,0.032,-1.921,0.580,-0.048,-0.0,1.0,11.8,39.066,1.079,0.032,NAV,1,14.79,0
4.60,0.992,0.038,-1.927,0.592,-0.054,-0.1,0.8,11.7,39.008,1.073,0.038,NAV,1,14.74,0
4.70,1.040,0.043,-1.932,0.600,-0.058,-0.2,0.6,11.6,38.960,1.068,0.043,NAV,1,14.68,0
4.80,1.100,0.050,-1.939,0.610,-0.062,-0.2,0.4,11.2,38.900,1.061,0.050,NAV,1,14.62,0
4.90,1.161,0.058,-1.945,0.618,-0.065,-0.2,0.3,10.7,38.839,1.055,0.058,NAV,1,,0
5.00,1.223,0.066,-1.952,0.626,-0.067,-0.2,0.2,10.0,38.777,1.048,0.066,NAV,1,,0
5.10,1.285,0.075,-1.959,0.632,-0.068,-0.2,0.1,9.2,38.715,1.041,0.075,NAV,1,,0
5.20,1.336,0.082,-1.965,0.635,-0.069,-0.2,0.1,8.5,38.664,1.035,0.082,NAV,1,,0
5.30,1.399,0.092,-1.972,0.639,-0.069,-0.1,0.1,7.7,38.601,1.028,0.092,NAV,1,,0
5.40,1.462,0.101,-1.979,0.643,-0.069,-0.1,0.2,6.9,38.538,1.021,0.101,NAV,1,,0
5.50,1.526,0.111,-1.986,0.645,-0.068,-0.1,0.2,6.1,38.474,1.014,0.111,NAV,1,,0
5.60,1.577,0.119,-1.992,0.646,-0.068,-0.1,0.3,5.6,38.423,1.008,0.119,NAV,1,14.11,0
5.70,1.641,0.128,-1.999,0.648,-0.068,-0.0,0.4,5.1,38.359,1.001,0.128,NAV,1,14.04,0
5.80,1.705,0.137,-2.006,0.649,-0.068,-0.0,0.5,4.8,38.295,0.994,0.137,NAV,1,13.98,0
5.90,1.770,0.146,-2.014,0.650,-0.069,0.0,0.6,4.7,38.231,0.986,0.146,NAV,1,13.91,0
6.00,1.821,0.152,-2.020,0.650,-0.069,0.0,0.6,4.9,38.179,0.980,0.152,NAV,1,13.85,0
6.10,1.886,0.159,-2.027,0.651,-0.070,0.0,0.7,5.3,38.115,0.973,0.159,NAV,1,13.78,0
6.20,1.950,0.166,-2.035,0.651,-0.071,0.1,0.7,5.9,38.050,0.965,0.166,NAV,1,13.72,0
6.30,2.015,0.172,-2.043,0.651,-0.072,0.1,0.7,6.7,37.985,0.957,0.172,NAV,1,13.65,0
6.40,2.080,0.178,-2.051,0.651,-0.073,0.1,0.6,7.5,37.920,0.949,0.178,NAV,1,13.60,0
6.50,2.132,0.183,-2.058,0.651,-0.074,0.2,0.6,8.2,37.869,0.942,0.183,NAV,1,13.60,0
6.60,2.197,0.188,-2.066,0.651,-0.075,0.2,0.5,9.1,37.804,0.934,0.188,NAV,1,13.53,0
6.70,2.262,0.194,-2.074,0.651,-0.075,0.2,0.5,10.0,37.739,0.926,0.194,NAV,1,13.47,0
6.80,2.327,0.200,-2.082,0.651,-0.075,0.2,0.4,10.8,37.674,0.918,0.200,NAV,1,13.40,0
6.90,2.392,0.205,-2.090,0.651,-0.076,0.1,0.4,11.4,37.609,0.910,0.205,NAV,1,13.34,0
7.00,2.444,0.211,-2.096,0.652,-0.075,0.1,0.3,11.8,37.557,0.904,0.211,NAV,1,13.28,0
7.10,2.509,0.217,-2.104,0.652,-0.075,0.0,0.3,12.1,37.491,0.896,0.217,NAV,1,13.22,0
7.20,2.561,0.223,-2.110,0.653,-0.074,-0.0,0.3,12.1,37.439,0.890,0.223,NAV,1,13.15,0
7.30,2.626,0.232,-2.118,0.654,-0.074,-0.1,0.3,11.9,37.374,0.882,0.232,NAV,1,13.09,0
7.40,2.691,0.240,-2.126,0.654,-0.073,-0.2,0.4,11.4,37.310,0.874,0.240,NAV,1,13.02,0
7.50,2.756,0.250,-2.134,0.655,-0.073,-0.2,0.4,10.7,37.245,0.866,0.250,NAV,1,12.95,0
7.60,2.808,0.258,-2.140,0.655,-0.073,-0.3,0.4,10.1,37.193,0.860,0.258,NAV,1,12.88,0
7.70,2.872,0.268,-2.147,0.655,-0.072,-0.3,0.4,9.2,37.129,0.853,0.268,NAV,1,12.82,0
7.80,2.924,0.276,-2.154,0.655,-0.072,-0.3,0.4,8.5,37.077,0.846,0.276,NAV,1,12.75,0
7.90,2.989,0.286,-2.161,0.654,-0.071,-0.3,0.4,7.7,37.012,0.839,0.286,NAV,1,12.69,0
8.00,3.040,0.295,-2.167,0.654,-0.070,-0.3,0.4,7.0,36.961,0.833,0.295,NAV,1,12.69,0
8.10,3.105,0.305,-2.175,0.653,-0.070,-0.2,0.4,6.2,36.896,0.825,0.305,NAV,1,12.62,0
8.20,3.169,0.316,-2.182,0.653,-0.070,-0.1,0.4,5.4,36.832,0.818,0.316,NAV,1,12.55,0
8.30,3.234,0.326,-2.190,0.652,-0.069,-0.1,0.4,4.5,36.768,0.810,0.326,NAV,1,12.49,0
8.40,3.298,0.337,-2.197,0.652,-0.069,-0.0,0.4,3.7,36.703,0.803,0.337,NAV,1,12.42,0
8.50,3.350,0.346,-2.203,0.652,-0.069,-0.0,0.4,3.1,36.652,0.797,0.346,NAV,1,12.36,0
8.60,3.415,0.356,-2.210,0.652,-0.069,0.0,0.4,2.6,36.587,0.790,0.356,NAV,1,12.29,0
8.70,3.480,0.366,-2.218,0.652,-0.068,0.0,0.4,2.3,36.522,0.782,0.366,NAV,1,12.22,0
8.80,3.531,0.374,-2.223,0.653,-0.068,0.0,0.4,2.3,36.470,0.777,0.374,NAV,1,12.16,0
8.90,3.596,0.383,-2.231,0.653,-0.068,0.0,0.4,2.4,36.406,0.769,0.383,NAV,1,12.09,0
9.00,3.661,0.391,-2.238,0.654,-0.068,0.0,0.4,2.8,36.341,0.762,0.391,NAV,1,12.03,0
9.10,3.714,0.397,-2.244,0.655,-0.068,0.0,0.4,3.3,36.289,0.756,0.397,AVOID,1,11.97,1
9.20,3.753,0.401,-2.248,0.654,-0.068,0.0,0.3,3.8,36.250,0.752,0.401,AVOID,1,11.97,1
9.30,3.817,0.408,-2.255,0.648,-0.070,0.0,0.3,4.7,36.185,0.745,0.408,AVOID,1,11.91,1
9.40,3.881,0.414,-2.263,0.639,-0.071,0.0,0.2,5.4,36.121,0.737,0.414,AVOID,1,11.84,1
9.50,3.944,0.421,-2.270,0.628,-0.072,0.0,0.1,6.1,36.058,0.730,0.421,AVOID,1,11.77,1
9.60,4.006,0.428,-2.277,0.615,-0.073,0.0,-0.0,6.7,35.997,0.723,0.428,AVOID,1,11.71,1
9.70,4.054,0.433,-2.283,0.604,-0.074,-0.0,-0.2,7.1,35.948,0.717,0.433,AVOID,1,11.66,1
9.80,4.114,0.439,-2.290,0.590,-0.074,-0.0,-0.4,7.6,35.889,0.710,0.439,AVOID,1,11.60,1
9.90,4.172,0.446,-2.297,0.575,-0.074,-0.1,-0.6,8.0,35.831,0.703,0.446,AVOID,1,11.55,1
10.00,4.228,0.452,-2.304,0.559,-0.074,-0.1,-0.7,8.3,35.775,0.696,0.452,AVOID,1,11.49,1
10.10,4.283,0.459,-2.310,0.543,-0.072,-0.1,-0.9,8.6,35.720,0.690,0.459,AVOID,1,11.44,1
10.20,4.325,0.464,-2.315,0.530,-0.071,-0.1,-1.0,8.7,35.678,0.685,0.464,AVOID,1,11.38,1
10.30,4.377,0.470,-2.321,0.514,-0.069,-0.1,-1.1,8.9,35.626,0.679,0.470,AVOID,1,11.33,1
10.40,4.418,0.474,-2.326,0.500,-0.066,-0.1,-1.2,9.0,35.585,0.674,0.474,AVOID,1,11.28,1
10.50,4.467,0.480,-2.331,0.484,-0.063,-0.1,-1.2,9.2,35.537,0.669,0.480,AVOID,1,11.23,1
10.60,4.514,0.485,-2.336,0.467,-0.060,-0.0,-1.3,9.3,35.489,0.664,0.485,AVOID,1,11.18,1
10.70,4.560,0.491,-2.341,0.450,-0.056,-0.0,-1.2,9.4,35.444,0.659,0.491,AVOID,1,11.14,1
10.80,4.595,0.495,-2.345,0.436,-0.053,-0.0,-1.2,9.5,35.409,0.655,0.495,AVOID,1,11.09,1
10.90,4.637,0.499,-2.349,0.420,-0.050,0.0,-1.2,9.6,35.366,0.651,0.499,AVOID,1,11.05,1
11.00,4.678,0.504,-2.353,0.403,-0.046,0.0,-1.1,9.7,35.325,0.647,0.504,AVOID,1,11.01,1
11.10,4.718,0.508,-2.357,0.387,-0.043,0.0,-1.1,9.8,35.286,0.643,0.508,AVOID,1,10.97,1
11.20,4.756,0.513,-2.360,0.372,-0.041,0.0,-1.0,9.8,35.248,0.640,0.513,AVOID,1,10.93,1
11.30,4.785,0.516,-2.363,0.360,-0.039,0.0,-1.0,9.8,35.219,0.637,0.516,AVOID,1,10.93,1
11.40,4.820,0.520,-2.366,0.345,-0.036,0.0,-1.0,9.9,35.184,0.634,0.520,AVOID,1,10.89,1
11.50,4.853,0.523,-2.369,0.332,-0.034,-0.0,-1.0,9.9,35.150,0.631,0.523,AVOID,1,10.86,1
11.60,4.879,0.526,-2.371,0.322,-0.033,-0.0,-0.9,9.9,35.124,0.629,0.526,AVOID,1,10.82,1
11.70,4.911,0.529,-2.374,0.311,-0.031,-0.0,-0.9,9.9,35.093,0.626,0.529,AVOID,1,10.79,1
11.80,4.941,0.533,-2.376,0.300,-0.029,-0.1,-0.9,9.9,35.063,0.624,0.533,AVOID,1,10.76,1
11.90,4.965,0.535,-2.378,0.292,-0.028,-0.1,-0.9,10.0,35.039,0.622,0.535,AVOID,1,10.73,1
12.00,4.994,0.538,-2.380,0.283,-0.027,-0.1,-0.9,10.0,35.010,0.620,0.538,AVOID,1,10.70,1
12.10,5.022,0.541,-2.383,0.274,-0.025,-0.1,-0.9,10.0,34.983,0.617,0.541,AVOID,1,10.67,1
12.20,5.049,0.543,-2.385,0.267,-0.024,-0.1,-0.9,10.0,34.956,0.615,0.543,AVOID,1,10.64,1
12.30,5.070,0.545,-2.386,0.262,-0.022,-0.1,-0.9,10.0,34.935,0.614,0.545,AVOID,1,10.62,1
12.40,5.096,0.548,-2.388,0.257,-0.021,-0.0,-0.8,10.1,34.909,0.612,0.548,AVOID,1,10.59,1
12.50,5.121,0.550,-2.389,0.254,-0.020,-0.0,-0.8,10.1,34.883,0.611,0.550,AVOID,1,10.56,1
12.60,5.146,0.552,-2.391,0.252,-0.018,-0.0,-0.7,10.1,34.858,0.609,0.552,AVOID,1,10.54,1
12.70,5.167,0.554,-2.392,0.253,-0.017,0.0,-0.6,10.1,34.838,0.608,0.554,AVOID,1,10.51,1
12.80,5.192,0.557,-2.394,0.255,-0.016,0.0,-0.5,10.1,34.813,0.606,0.557,AVOID,1,10.49,1
12.90,5.217,0.560,-2.395,0.258,-0.015,0.0,-0.4,10.0,34.787,0.605,0.560,AVOID,1,10.46,1
13.00,5.244,0.562,-2.396,0.264,-0.014,0.0,-0.2,9.9,34.761,0.604,0.562,AVOID,1,10.46,1
13.10,5.265,0.565,-2.397,0.270,-0.013,0.0,-0.1,9.8,34.740,0.603,0.565,AVOID,1,10.43,1
13.20,5.292,0.568,-2.398,0.280,-0.012,0.0,0.0,9.6,34.712,0.602,0.568,AVOID,1,10.40,1
13.30,5.321,0.572,-2.400,0.291,-0.012,-0.0,0.2,9.5,34.684,0.600,0.572,AVOID,1,10.38,1
13.40,5.350,0.575,-2.401,0.303,-0.012,-0.0,0.4,9.3,34.655,0.599,0.575,AVOID,1,10.35,1
13.50,5.381,0.580,-2.403,0.314,-0.012,-0.1,0.5,9.1,34.624,0.597,0.580,AVOID,1,10.32,1
13.60,5.412,0.584,-2.404,0.323,-0.014,-0.1,0.6,8.9,34.593,0.596,0.584,AVOID,1,10.28,1
13.70,5.438,0.587,-2.406,0.330,-0.015,-0.1,0.7,8.8,34.567,0.594,0.587,AVOID,1,10.25,1
13.80,5.471,0.592,-2.408,0.338,-0.017,-0.1,0.7,8.6,34.534,0.592,0.592,AVOID,1,10.22,1
13.90,5.505,0.596,-2.410,0.345,-0.019,-0.1,0.6,8.4,34.500,0.590,0.596,AVOID,1,10.19,1
14.00,5.540,0.601,-2.412,0.351,-0.022,-0.1,0.5,8.2,34.466,0.588,0.601,AVOID,1,10.15,1
14.10,5.575,0.606,-2.415,0.355,-0.025,-0.1,0.4,8.1,34.431,0.585,0.606,NAV,1,10.12,0
14.20,5.609,0.610,-2.418,0.338,-0.031,-0.1,0.1,7.9,34.396,0.582,0.610,NAV,1,10.09,0
14.30,5.635,0.614,-2.421,0.325,-0.036,-0.0,-0.1,7.8,34.370,0.579,0.614,NAV,1,10.05,0
14.40,5.667,0.618,-2.424,0.312,-0.044,-0.0,-0.5,7.7,34.339,0.576,0.618,NAV,1,10.02,0
14.50,5.697,0.622,-2.429,0.300,-0.051,0.0,-1.0,7.6,34.309,0.571,0.622,NAV,1,9.99,0
14.60,5.721,0.625,-2.433,0.292,-0.056,0.1,-1.3,7.5,34.285,0.567,0.625,NAV,1,9.97,0
14.70,5.749,0.629,-2.438,0.284,-0.060,0.1,-1.6,7.5,34.257,0.562,0.629,NAV,1,9.94,0
14.80,5.777,0.632,-2.443,0.277,-0.062,0.1,-1.8,7.4,34.229,0.557,0.632,NAV,1,9.92,0
14.90,5.804,0.636,-2.448,0.271,-0.061,0.1,-1.9,7.4,34.201,0.552,0.636,NAV,1,9.89,0
15.00,5.831,0.639,-2.454,0.267,-0.060,0.1,-1.9,7.4,34.175,0.546,0.639,NAV,1,9.86,0
15.10,5.858,0.642,-2.459,0.263,-0.057,0.1,-1.7,7.4,34.148,0.541,0.642,AVOID,1,9.84,1
15.20,5.879,0.645,-2.463,0.261,-0.056,0.0,-1.5,7.5,34.127,0.537,0.645,AVOID,1,9.81,1
15.30,5.905,0.648,-2.467,0.257,-0.054,-0.0,-1.2,7.8,34.102,0.533,0.648,AVOID,1,9.78,1
15.40,5.925,0.650,-2.471,0.252,-0.052,-0.0,-0.9,8.0,34.081,0.529,0.650,AVOID,1,9.75,1
15.50,5.950,0.652,-2.476,0.246,-0.051,-0.1,-0.5,8.4,34.056,0.524,0.652,AVOID,1,9.75,1
15.60,5.974,0.655,-2.481,0.239,-0.051,-0.1,-0.1,8.8,34.032,0.519,0.655,AVOID,1,9.72,1
15.70,5.997,0.657,-2.486,0.233,-0.051,-0.1,0.2,9.2,34.009,0.514,0.657,AVOID,1,9.69,1
15.80,6.016,0.659,-2.490,0.227,-0.052,-0.1,0.4,9.5,33.991,0.510,0.659,AVOID,1,9.67,1
15.90,6.038,0.661,-2.496,0.220,-0.053,-0.1,0.5,9.9,33.968,0.504,0.661,AVOID,1,9.65,1
16.00,6.060,0.663,-2.501,0.214,-0.054,-0.1,0.6,10.3,33.947,0.499,0.663,AVOID,1,9.62,1
16.10,6.081,0.665,-2.507,0.207,-0.056,-0.1,0.5,10.7,33.926,0.493,0.665,AVOID,1,9.60,1
16.20,6.097,0.666,-2.512,0.203,-0.058,-0.0,0.4,11.0,33.910,0.488,0.666,AVOID,1,9.58,1
16.30,6.117,0.668,-2.518,0.198,-0.059,-0.0,0.2,11.4,33.890,0.482,0.668,AVOID,1,9.57,1
16.40,6.137,0.669,-2.524,0.193,-0.060,0.0,-0.0,11.7,33.870,0.476,0.669,AVOID,1,9.55,1
16.50,6.156,0.671,-2.530,0.189,-0.060,0.0,-0.3,12.0,33.851,0.470,0.671,AVOID,1,9.53,1
16.60,6.167,0.672,-2.533,0.188,-0.060,0.0,-0.5,12.2,33.840,0.467,0.672,AVOID,1,9.52,1
16.70,6.182,0.673,-2.538,0.185,-0.061,0.0,-0.7,12.5,33.825,0.462,0.673,AVOID,1,9.52,1
16.80,6.201,0.675,-2.544,0.183,-0.060,0.0,-0.9,12.8,33.806,0.456,0.675,AVOID,1,9.50,1
16.90,6.219,0.677,-2.549,0.181,-0.058,0.0,-1.0,13.1,33.788,0.451,0.677,AVOID,1,9.48,1
17.00,6.237,0.678,-2.555,0.180,-0.056,0.0,-1.1,13.4,33.769,0.445,0.678,AVOID,1,9.47,1
17.10,6.256,0.680,-2.560,0.178,-0.054,-0.0,-1.2,13.7,33.751,0.440,0.680,AVOID,1,9.45,1
17.20,6.270,0.681,-2.564,0.177,-0.052,-0.0,-1.1,13.9,33.737,0.436,0.681,AVOID,1,9.43,1
17.30,6.288,0.683,-2.569,0.176,-0.050,-0.0,-1.0,14.2,33.719,0.431,0.683,AVOID,1,9.42,1
17.40,6.305,0.685,-2.573,0.174,-0.048,-0.1,-0.9,14.5,33.701,0.427,0.685,AVOID,1,9.40,1
17.50,6.323,0.686,-2.578,0.172,-0.046,-0.1,-0.7,14.7,33.684,0.422,0.686,AVOID,1,9.38,1
17.60,6.337,0.688,-2.581,0.170,-0.045,-0.1,-0.5,14.9,33.670,0.419,0.688,AVOID,1,9.36,1
17.70,6.354,0.689,-2.585,0.168,-0.045,-0.1,-0.3,15.1,33.653,0.415,0.689,AVOID,1,9.35,1
17.80,6.371,0.691,-2.590,0.165,-0.044,-0.0,-0.1,15.3,33.636,0.410,0.691,AVOID,1,9.33,1
17.90,6.387,0.692,-2.594,0.162,-0.044,-0.0,0.1,15.6,33.620,0.406,0.692,AVOID,1,9.31,1
18.00,6.404,0.694,-2.599,0.159,-0.044,-0.0,0.2,15.8,33.604,0.401,0.694,AVOID,1,9.30,1
18.10,6.416,0.695,-2.602,0.157,-0.044,0.0,0.2,15.9,33.591,0.398,0.695,AVOID,1,9.28,1
18.20,6.429,0.696,-2.606,0.155,-0.045,0.0,0.2,16.0,33.578,0.394,0.696,AVOID,1,9.27,1
18.30,6.441,0.698,-2.609,0.154,-0.046,0.0,0.2,16.1,33.566,0.391,0.698,AVOID,1,9.27,1
18.40,6.454,0.699,-2.613,0.154,-0.047,0.0,0.1,16.2,33.554,0.387,0.699,AVOID,1,9.25,1
18.50,6.466,0.700,-2.617,0.155,-0.047,0.0,0.0,16.3,33.541,0.383,0.700,AVOID,1,9.23,1
18.60,6.479,0.702,-2.621,0.158,-0.047,0.0,-0.1,16.3,33.529,0.379,0.702,AVOID,1,9.22,1
18.70,6.495,0.704,-2.625,0.163,-0.047,0.0,-0.2,16.3,33.513,0.375,0.704,AVOID,1,9.20,1
18.80,6.508,0.706,-2.629,0.169,-0.046,0.0,-0.2,16.2,33.499,0.371,0.706,AVOID,1,9.19,1
18.90,6.522,0.708,-2.633,0.177,-0.046,0.0,-0.3,16.2,33.486,0.367,0.708,AVOID,1,9.19,1
19.00,6.540,0.711,-2.637,0.188,-0.044,0.0,-0.3,16.1,33.467,0.363,0.711,AVOID,1,9.17,1
19.10,6.559,0.715,-2.641,0.201,-0.042,0.0,-0.2,16.0,33.448,0.359,0.715,AVOID,1,9.15,1
19.20,6.580,0.718,-2.645,0.217,-0.040,-0.0,-0.1,15.9,33.428,0.355,0.718,AVOID,1,9.13,1
19.30,6.598,0.722,-2.649,0.230,-0.038,-0.0,0.1,15.8,33.410,0.351,0.722,AVOID,1,9.11,1
19.40,6.621,0.727,-2.652,0.248,-0.036,-0.0,0.3,15.6,33.387,0.348,0.727,AVOID,1,9.09,1
19.50,6.646,0.732,-2.656,0.264,-0.035,-0.0,0.5,15.5,33.362,0.344,0.732,AVOID,1,9.06,1
19.60,6.668,0.737,-2.659,0.275,-0.034,-0.1,0.7,15.3,33.341,0.341,0.737,AVOID,1,9.03,1
19.70,6.695,0.743,-2.663,0.288,-0.034,-0.1,1.0,15.1,33.313,0.337,0.743,AVOID,1,9.01,1
19.80,6.724,0.749,-2.667,0.299,-0.035,-0.1,1.1,14.9,33.285,0.333,0.749,AVOID,1,8.97,1
19.90,6.747,0.755,-2.670,0.307,-0.036,-0.1,1.2,14.7,33.261,0.330,0.755,AVOID,1,8.94,1
20.00,6.778,0.762,-2.675,0.316,-0.038,-0.1,1.2,14.5,33.231,0.325,0.762,AVOID,1,8.91,1
20.10,6.809,0.769,-2.679,0.325,-0.040,-0.1,1.2,14.2,33.200,0.321,0.769,NAV,1,8.88,0
20.20,6.834,0.775,-2.683,0.314,-0.044,-0.1,1.0,14.0,33.175,0.317,0.775,NAV,1,8.85,0
20.30,6.863,0.782,-2.688,0.299,-0.049,-0.0,0.7,13.7,33.146,0.312,0.782,NAV,1,8.82,0
20.40,6.892,0.789,-2.694,0.286,-0.053,-0.0,0.2,13.4,33.118,0.306,0.789,NAV,1,8.79,0
20.50,6.914,0.794,-2.698,0.277,-0.056,-0.0,-0.2,13.2,33.096,0.302,0.794,NAV,1,8.79,0
20.60,6.940,0.800,-2.704,0.268,-0.058,0.0,-0.7,12.9,33.070,0.296,0.800,NAV,1,8.76,0
20.70,6.966,0.807,-2.709,0.260,-0.058,0.0,-1.2,12.6,33.044,0.291,0.807,NAV,1,8.74,0
20.80,6.991,0.813,-2.714,0.254,-0.056,0.1,-1.6,12.3,33.019,0.286,0.813,NAV,1,8.72,0
20.90,7.011,0.818,-2.718,0.251,-0.055,0.1,-1.9,12.1,33.000,0.282,0.818,NAV,1,8.70,0
21.00,7.035,0.824,-2.722,0.248,-0.051,0.1,-2.0,11.8,32.975,0.278,0.824,NAV,1,8.68,0
21.10,7.059,0.830,-2.726,0.246,-0.047,0.1,-2.1,11.5,32.952,0.274,0.830,NAV,1,8.65,0
21.20,7.083,0.836,-2.730,0.244,-0.042,0.0,-2.0,11.3,32.928,0.270,0.836,AVOID,1,8.63,1
21.30,7.102,0.840,-2.732,0.242,-0.039,0.0,-1.8,11.3,32.909,0.268,0.840,AVOID,1,8.60,1
21.40,7.125,0.846,-2.735,0.239,-0.035,-0.0,-1.5,11.3,32.885,0.265,0.846,AVOID,1,8.57,1
21.50,7.148,0.851,-2.738,0.234,-0.032,-0.1,-1.1,11.4,32.863,0.262,0.851,AVOID,1,8.55,1
21.60,7.167,0.855,-2.740,0.230,-0.030,-0.1,-0.7,11.5,32.845,0.260,0.855,AVOID,1,8.52,1
21.70,7.189,0.860,-2.743,0.224,-0.028,-0.1,-0.4,11.7,32.823,0.257,0.860,AVOID,1,8.50,1
21.80,7.206,0.864,-2.745,0.219,-0.027,-0.2,-0.1,11.8,32.805,0.255,0.864,AVOID,1,8.47,1
21.90,7.227,0.869,-2.748,0.213,-0.027,-0.2,0.2,12.1,32.784,0.252,0.869,AVOID,1,8.45,1
22.00,7.248,0.873,-2.751,0.207,-0.028,-0.2,0.4,12.3,32.764,0.249,0.873,AVOID,1,8.43,1
22.10,7.268,0.877,-2.754,0.201,-0.029,-0.1,0.5,12.6,32.744,0.246,0.877,AVOID,1,8.41,1
22.20,7.287,0.881,-2.757,0.196,-0.030,-0.1,0.5,12.9,32.725,0.243,0.881,AVOID,1,8.41,1
22.30,7.302,0.884,-2.759,0.191,-0.032,-0.1,0.4,13.1,32.710,0.241,0.884,AVOID,1,8.39,1
22.40,7.321,0.888,-2.763,0.187,-0.033,-0.0,0.2,13.4,32.691,0.237,0.888,AVOID,1,8.37,1
22.50,7.339,0.892,-2.766,0.183,-0.034,0.0,-0.0,13.7,32.673,0.234,0.892,AVOID,1,8.36,1
22.60,7.356,0.895,-2.770,0.179,-0.035,0.1,-0.3,14.0,32.656,0.230,0.895,AVOID,1,8.34,1
22.70,7.370,0.898,-2.772,0.177,-0.034,0.1,-0.5,14.2,32.642,0.228,0.898,AVOID,1,8.33,1
22.80,7.388,0.902,-2.775,0.175,-0.034,0.1,-0.8,14.5,32.625,0.225,0.902,AVOID,1,8.31,1
22.90,7.405,0.905,-2.778,0.173,-0.033,0.1,-1.0,14.8,32.608,0.222,0.905,AVOID,1,8.30,1
23.00,7.418,0.908,-2.781,0.172,-0.032,0.1,-1.2,15.0,32.594,0.219,0.908,AVOID,1,8.28,1
23.10,7.435,0.912,-2.783,0.171,-0.030,0.0,-1.3,15.2,32.578,0.217,0.912,AVOID,1,8.27,1
23.20,7.452,0.916,-2.786,0.170,-0.028,0.0,-1.3,15.5,32.561,0.214,0.916,AVOID,1,8.26,1
23.30,7.465,0.918,-2.788,0.169,-0.026,-0.0,-1.3,15.7,32.548,0.212,0.918,AVOID,1,8.24,1
23.40,7.482,0.922,-2.790,0.168,-0.024,-0.1,-1.2,15.9,32.531,0.210,0.922,AVOID,1,8.22,1
23.50,7.498,0.926,-2.792,0.167,-0.022,-0.1,-1.0,16.1,32.515,0.208,0.926,AVOID,1,8.21,1
23.60,7.515,0.929,-2.794,0.166,-0.021,-0.1,-0.8,16.3,32.499,0.206,0.929,AVOID,1,8.19,1
23.70,7.528,0.932,-2.795,0.164,-0.020,-0.1,-0.7,16.5,32.486,0.205,0.932,AVOID,1,8.17,1
23.80,7.544,0.936,-2.797,0.162,-0.020,-0.1,-0.4,16.6,32.470,0.203,0.936,AVOID,1,8.15,1
23.90,7.556,0.938,-2.799,0.160,-0.019,-0.1,-0.3,16.8,32.457,0.201,0.938,AVOID,1,8.15,1
24.00,7.569,0.941,-2.800,0.158,-0.019,-0.1,-0.1,16.9,32.445,0.200,0.941,AVOID,1,8.14,1
24.10,7.584,0.944,-2.802,0.155,-0.020,-0.1,0.0,17.0,32.430,0.198,0.944,AVOID,1,8.12,1
24.20,7.599,0.948,-2.804,0.153,-0.021,-0.0,0.1,17.2,32.415,0.196,0.948,AVOID,1,8.11,1
24.30,7.611,0.950,-2.806,0.152,-0.021,0.0,0.1,17.2,32.403,0.194,0.950,AVOID,1,8.09,1
24.40,7.626,0.954,-2.808,0.151,-0.022,0.0,0.1,17.3,32.388,0.192,0.954,AVOID,1,8.08,1
24.50,7.641,0.957,-2.810,0.152,-0.023,0.0,0.1,17.3,32.373,0.190,0.957,AVOID,1,8.06,1
24.60,7.656,0.961,-2.813,0.155,-0.023,0.1,-0.0,17.3,32.359,0.187,0.961,AVOID,1,8.05,1
24.70,7.671,0.965,-2.815,0.160,-0.023,0.1,-0.1,17.2,32.343,0.185,0.965,AVOID,1,8.03,1
24.80,7.687,0.969,-2.817,0.167,-0.023,0.1,-0.2,17.1,32.328,0.183,0.969,AVOID,1,8.02,1
24.90,7.704,0.973,-2.819,0.176,-0.022,0.1,-0.2,17.1,32.311,0.181,0.973,AVOID,1,8.00,1
25.00,7.718,0.977,-2.821,0.185,-0.022,0.0,-0.3,17.0,32.297,0.179,0.977,AVOID,1,7.98,1
25.10,7.736,0.982,-2.823,0.197,-0.021,0.0,-0.2,16.9,32.279,0.177,0.982,AVOID,1,7.96,1
25.20,7.756,0.988,-2.825,0.212,-0.020,-0.0,-0.2,16.8,32.259,0.175,0.988,AVOID,1,7.94,1
25.30,7.773,0.992,-2.826,0.225,-0.019,-0.0,-0.1,16.6,32.243,0.174,0.992,AVOID,1,7.92,1
25.40,7.795,0.999,-2.828,0.243,-0.017,-0.1,0.1,16.5,32.220,0.172,0.999,AVOID,1,7.90,1
25.50,7.819,1.006,-2.830,0.259,-0.016,-0.1,0.3,16.3,32.196,0.170,1.006,AVOID,1,7.87,1
25.60,7.845,1.013,-2.832,0.274,-0.016,-0.1,0.5,16.2,32.171,0.168,1.013,AVOID,1,7.85,1
25.70,7.872,1.021,-2.834,0.287,-0.016,-0.1,0.7,16.0,32.144,0.166,1.021,AVOID,1,7.82,1
25.80,7.895,1.028,-2.835,0.296,-0.017,-0.1,0.9,15.8,32.122,0.165,1.028,AVOID,1,7.82,1
25.90,7.923,1.036,-2.838,0.307,-0.018,-0.1,1.0,15.6,32.093,0.162,1.036,AVOID,1,7.79,1
26.00,7.953,1.045,-2.840,0.316,-0.020,-0.1,1.0,15.4,32.064,0.160,1.045,AVOID,1,7.76,1
26.10,7.984,1.054,-2.843,0.324,-0.022,-0.1,1.0,15.1,32.033,0.157,1.054,AVOID,1,7.73,1
26.20,8.015,1.063,-2.846,0.315,-0.026,-0.1,0.8,14.9,32.003,0.154,1.063,NAV,1,7.70,0
26.30,8.039,1.070,-2.848,0.303,-0.030,-0.0,0.6,14.6,31.979,0.152,1.070,NAV,1,7.67,0
26.40,8.067,1.079,-2.852,0.290,-0.035,-0.0,0.2,14.4,31.951,0.148,1.079,NAV,1,7.64,0
26.50,8.094,1.087,-2.855,0.278,-0.038,0.0,-0.3,14.1,31.925,0.145,1.087,NAV,1,7.61,0
26.60,8.120,1.095,-2.859,0.269,-0.039,0.1,-0.8,13.7,31.899,0.141,1.095,NAV,1,7.58,0
26.70,8.145,1.103,-2.862,0.262,-0.040,0.1,-1.3,13.4,31.874,0.138,1.103,NAV,1,7.56,0
26.80,8.165,1.110,-2.865,0.257,-0.039,0.1,-1.6,13.2,31.854,0.135,1.110,NAV,1,7.54,0
26.90,8.190,1.118,-2.868,0.252,-0.037,0.1,-1.9,12.8,31.830,0.132,1.118,NAV,1,7.51,0
27.00,8.214,1.126,-2.871,0.249,-0.034,0.1,-2.1,12.5,31.806,0.129,1.126,NAV,1,7.49,0
27.10,8.233,1.132,-2.872,0.247,-0.031,0.1,-2.1,12.2,31.788,0.128,1.132,NAV,1,7.47,0
27.20,8.256,1.139,-2.874,0.245,-0.026,0.1,-2.0,11.9,31.764,0.126,1.139,AVOID,1,7.44,1
27.30,8.280,1.147,-2.876,0.243,-0.022,0.0,-1.8,11.7,31.741,0.124,1.147,AVOID,1,7.42,1
27.40,8.298,1.153,-2.877,0.239,-0.019,-0.0,-1.5,11.6,31.723,0.123,1.153,AVOID,1,7.39,1
27.50,8.321,1.160,-2.878,0.235,-0.016,-0.1,-1.2,11.4,31.700,0.122,1.160,AVOID,1,7.36,1
27.60,8.343,1.167,-2.879,0.229,-0.014,-0.1,-0.8,11.4,31.679,0.121,1.167,AVOID,1,7.34,1
27.70,8.365,1.174,-2.880,0.224,-0.013,-0.2,-0.4,11.4,31.657,0.120,1.174,AVOID,1,7.31,1
27.80,8.382,1.179,-2.881,0.219,-0.012,-0.2,-0.1,11.4,31.640,0.119,1.179,AVOID,1,7.31,1
27.90,8.402,1.185,-2.883,0.213,-0.012,-0.2,0.1,11.5,31.620,0.117,1.185,AVOID,1,7.29,1
28.00,8.423,1.191,-2.884,0.207,-0.013,-0.2,0.3,11.6,31.600,0.116,1.191,AVOID,1,7.27,1
28.10,8.442,1.197,-2.886,0.201,-0.015,-0.1,0.4,11.7,31.581,0.114,1.197,AVOID,1,7.25,1
28.20,8.457,1.202,-2.887,0.196,-0.017,-0.1,0.4,11.8,31.565,0.113,1.202,AVOID,1,7.23,1
28.30,8.476,1.207,-2.889,0.191,-0.019,-0.0,0.3,12.0,31.547,0.111,1.207,AVOID,1,7.21,1
28.40,8.494,1.212,-2.891,0.187,-0.022,0.0,0.1,12.1,31.529,0.109,1.212,AVOID,1,7.19,1
28.50,8.512,1.218,-2.893,0.183,-0.024,0.1,-0.1,12.3,31.512,0.107,1.218,AVOID,1,7.18,1
28.60,8.529,1.223,-2.896,0.180,-0.026,0.1,-0.4,12.5,31.494,0.104,1.223,AVOID,1,7.16,1
28.70,8.546,1.228,-2.898,0.177,-0.028,0.1,-0.6,12.6,31.478,0.102,1.228,AVOID,1,7.14,1
28.80,8.560,1.232,-2.900,0.176,-0.028,0.1,-0.8,12.7,31.464,0.100,1.232,AVOID,1,7.13,1
28.90,8.577,1.237,-2.903,0.174,-0.029,0.1,-1.0,12.8,31.448,0.097,1.237,AVOID,1,7.11,1
29.00,8.593,1.242,-2.906,0.173,-0.028,0.1,-1.2,13.0,31.431,0.094,1.242,AVOID,1,7.10,1
29.10,8.610,1.247,-2.908,0.172,-0.027,0.1,-1.3,13.1,31.415,0.092,1.247,AVOID,1,7.08,1
29.20,8.626,1.253,-2.910,0.171,-0.026,0.0,-1.3,13.2,31.399,0.090,1.253,AVOID,1,7.07,1
29.30,8.640,1.257,-2.912,0.170,-0.024,-0.0,-1.2,13.3,31.386,0.088,1.257,AVOID,1,7.05,1
29.40,8.656,1.262,-2.914,0.169,-0.023,-0.0,-1.1,13.4,31.370,0.086,1.262,AVOID,1,7.03,1
29.50,8.672,1.267,-2.916,0.168,-0.021,-0.1,-0.9,13.5,31.354,0.084,1.267,AVOID,1,7.02,1
29.60,8.688,1.272,-2.918,0.166,-0.020,-0.1,-0.7,13.6,31.338,0.082,1.272,AVOID,1,7.00,1
29.70,8.704,1.277,-2.919,0.164,-0.018,-0.1,-0.5,13.7,31.322,0.081,1.277,AVOID,1,6.98,1
29.80,8.719,1.281,-2.921,0.162,-0.018,-0.1,-0.3,13.7,31.307,0.079,1.281,AVOID,1,6.97,1
29.90,8.735,1.286,-2.923,0.159,-0.018,-0.1,-0.1,13.8,31.292,0.077,1.286,AVOID,1,6.97,1
30.00,8.747,1.290,-2.924,0.157,-0.018,-0.1,-0.0,13.8,31.280,0.076,1.290,AVOID,1,6.95,1
30.10,8.762,1.294,-2.926,0.155,-0.018,-0.1,0.1,13.9,31.265,0.074,1.294,AVOID,1,6.94,1
30.20,8.777,1.299,-2.928,0.152,-0.019,-0.0,0.1,13.9,31.250,0.072,1.299,AVOID,1,6.92,1
30.30,8.791,1.303,-2.930,0.150,-0.020,0.0,0.1,14.0,31.236,0.070,1.303,AVOID,1,6.91,1
30.40,8.805,1.308,-2.932,0.150,-0.021,0.1,0.0,14.0,31.222,0.068,1.308,AVOID,1,6.89,1
30.50,8.820,1.313,-2.934,0.152,-0.022,0.1,-0.1,14.0,31.208,0.066,1.313,AVOID,1,6.88,1
30.60,8.834,1.317,-2.936,0.155,-0.023,0.1,-0.2,14.0,31.194,0.064,1.317,AVOID,1,6.86,1
30.70,8.846,1.321,-2.938,0.159,-0.023,0.1,-0.3,13.9,31.182,0.062,1.321,AVOID,1,6.85,1
30.80,8.862,1.326,-2.940,0.165,-0.022,0.1,-0.3,13.9,31.166,0.060,1.326,AVOID,1,6.85,1
30.90,8.878,1.331,-2.942,0.174,-0.022,0.1,-0.4,13.8,31.150,0.058,1.331,AVOID,1,6.83,1
31.00,8.895,1.337,-2.944,0.185,-0.021,0.0,-0.4,13.8,31.134,0.056,1.337,AVOID,1,6.82,1
31.10,8.913,1.343,-2.946,0.197,-0.019,0.0,-0.3,13.7,31.115,0.054,1.343,AVOID,1,6.80,1
31.20,8.933,1.349,-2.948,0.211,-0.017,-0.0,-0.2,13.6,31.096,0.052,1.349,AVOID,1,6.78,1
31.30,8.954,1.355,-2.949,0.227,-0.015,-0.1,-0.0,13.5,31.075,0.051,1.355,AVOID,1,6.76,1
31.40,8.977,1.362,-2.951,0.245,-0.013,-0.1,0.2,13.3,31.053,0.049,1.362,AVOID,1,6.74,1
31.50,8.996,1.368,-2.952,0.258,-0.011,-0.1,0.4,13.2,31.034,0.048,1.368,AVOID,1,6.72,1
31.60,9.016,1.374,-2.953,0.270,-0.010,-0.1,0.6,13.1,31.014,0.047,1.374,AVOID,1,6.69,1
31.70,9.038,1.381,-2.954,0.281,-0.009,-0.1,0.8,12.9,30.993,0.046,1.381,AVOID,1,6.65,1
31.80,9.065,1.389,-2.955,0.293,-0.008,-0.1,1.0,12.7,30.966,0.045,1.389,AVOID,1,6.62,1
31.90,9.094,1.397,-2.957,0.304,-0.009,-0.1,1.1,12.5,30.938,0.043,1.397,AVOID,1,6.59,1
32.00,9.124,1.406,-2.958,0.313,-0.011,-0.1,1.1,12.2,30.908,0.042,1.406,AVOID,1,6.56,1
32.10,9.154,1.415,-2.960,0.322,-0.013,-0.0,1.1,12.0,30.878,0.040,1.415,AVOID,1,6.53,1
32.20,9.185,1.424,-2.962,0.317,-0.017,-0.0,0.9,11.7,30.848,0.038,1.424,NAV,1,6.50,0
32.30,9.215,1.433,-2.964,0.302,-0.023,0.0,0.6,11.4,30.818,0.036,1.433,NAV,1,6.47,0
32.40,9.238,1.440,-2.967,0.291,-0.028,0.0,0.2,11.1,30.796,0.033,1.440,NAV,1,6.44,0
32.50,9.265,1.449,-2.970,0.280,-0.033,0.1,-0.3,10.8,30.769,0.030,1.449,NAV,1,6.42,0
32.60,9.291,1.457,-2.973,0.270,-0.036,0.1,-0.8,10.5,30.743,0.027,1.457,NAV,1,6.39,0
32.70,9.317,1.465,-2.976,0.263,-0.037,0.1,-1.3,10.2,30.718,0.024,1.465,NAV,1,6.37,0
32.80,9.342,1.473,-2.979,0.257,-0.034,0.1,-1.7,9.9,30.693,0.021,1.473,NAV,1,6.35,0
32.90,9.366,1.481,-2.981,0.252,-0.030,0.1,-2.0,9.6,30.669,0.019,1.481,NAV,1,6.33,0
33.00,9.391,1.489,-2.983,0.249,-0.024,0.1,-2.2,9.3,30.646,0.017,1.489,NAV,1,6.33,0
33.10,9.410,1.495,-2.984,0.247,-0.019,0.0,-2.2,9.1,30.627,0.016,1.495,NAV,1,6.31,0
33.20,9.433,1.503,-2.985,0.246,-0.011,0.0,-2.1,8.9,30.604,0.015,1.503,AVOID,1,6.29,1
33.30,9.457,1.511,-2.984,0.243,-0.004,-0.0,-1.8,8.8,30.580,0.016,1.511,AVOID,1,6.24,1
33.40,9.480,1.518,-2.984,0.239,0.004,-0.1,-1.5,8.8,30.557,0.016,1.518,AVOID,1,6.22,1
33.50,9.503,1.525,-2.982,0.234,0.011,-0.1,-1.1,8.9,30.535,0.018,1.525,AVOID,1,6.21,1
33.60,9.521,1.530,-2.981,0.230,0.015,-0.2,-0.8,9.0,30.517,0.019,1.530,AVOID,1,6.19,1
33.70,9.543,1.537,-2.979,0.224,0.020,-0.2,-0.5,9.2,30.496,0.021,1.537,AVOID,1,6.16,1
33.80,9.564,1.543,-2.977,0.218,0.024,-0.2,-0.2,9.4,30.475,0.023,1.543,AVOID,1,6.14,1
33.90,9.585,1.549,-2.974,0.212,0.027,-0.1,0.1,9.7,30.454,0.026,1.549,AVOID,1,6.11,1
34.00,9.605,1.555,-2.971,0.206,0.029,-0.1,0.2,10.0,30.435,0.029,1.555,AVOID,1,6.09,1
34.10,9.625,1.561,-2.968,0.200,0.030,-0.0,0.2,10.3,30.415,0.032,1.561,AVOID,1,6.07,1
34.20,9.644,1.566,-2.965,0.195,0.031,0.0,0.1,10.6,30.397,0.035,1.566,AVOID,1,6.05,1
34.30,9.662,1.572,-2.962,0.190,0.031,0.1,-0.0,10.9,30.378,0.038,1.572,AVOID,1,6.03,1
34.40,9.677,1.576,-2.960,0.187,0.031,0.1,-0.2,11.1,30.364,0.040,1.576,AVOID,1,6.01,1
34.50,9.695,1.581,-2.957,0.184,0.029,0.2,-0.5,11.4,30.346,0.043,1.581,AVOID,1,5.99,1
34.60,9.712,1.586,-2.954,0.181,0.027,0.2,-0.8,11.7,30.329,0.046,1.586,AVOID,1,6.01,1
34.70,9.729,1.592,-2.951,0.179,0.024,0.2,-1.1,12.0,30.312,0.049,1.592,AVOID,1,5.99,1
34.80,9.747,1.597,-2.948,0.178,0.022,0.1,-1.3,12.3,30.296,0.052,1.597,AVOID,1,5.97,1
34.90,9.760,1.601,-2.946,0.177,0.021,0.1,-1.5,12.5,30.282,0.054,1.601,AVOID,1,5.95,1
35.00,9.777,1.606,-2.943,0.176,0.021,0.0,-1.6,12.8,30.266,0.057,1.606,AVOID,1,5.93,1
35.10,9.794,1.611,-2.941,0.175,0.021,-0.0,-1.6,13.0,30.249,0.059,1.611,AVOID,1,5.92,1
35.20,9.807,1.615,-2.939,0.174,0.021,-0.0,-1.6,13.2,30.236,0.061,1.615,AVOID,1,5.90,1
35.30,9.823,1.620,-2.936,0.173,0.021,-0.1,-1.4,13.4,30.220,0.064,1.620,AVOID,1,5.88,1
35.40,9.840,1.625,-2.934,0.172,0.022,-0.1,-1.3,13.7,30.204,0.066,1.625,AVOID,1,5.86,1
35.50,9.856,1.630,-2.931,0.170,0.022,-0.1,-1.0,13.9,30.188,0.069,1.630,AVOID,1,5.84,1
35.60,9.872,1.635,-2.929,0.168,0.022,-0.1,-0.8,14.0,30.172,0.071,1.635,AVOID,1,5.83,1
35.70,9.888,1.640,-2.926,0.166,0.021,-0.1,-0.6,14.2,30.156,0.074,1.640,AVOID,1,5.83,1
35.80,9.901,1.644,-2.924,0.164,0.020,-0.1,-0.4,14.3,30.144,0.076,1.644,AVOID,1,5.83,1
35.90,9.916,1.649,-2.922,0.161,0.019,-0.1,-0.2,14.5,30.129,0.078,1.649,AVOID,1,5.83,1
36.00,9.932,1.654,-2.921,0.158,0.016,-0.0,-0.1,14.6,30.114,0.079,1.654,AVOID,1,5.81,1
36.10,9.947,1.658,-2.919,0.155,0.014,0.0,0.0,14.8,30.099,0.081,1.658,AVOID,1,5.79,1
36.20,9.958,1.662,-2.918,0.153,0.012,0.1,0.0,14.9,30.088,0.082,1.662,AVOID,1,5.78,1
36.30,9.973,1.666,-2.917,0.151,0.009,0.1,-0.0,15.0,30.073,0.083,1.666,AVOID,1,5.76,1
36.40,9.987,1.671,-2.916,0.151,0.006,0.1,-0.1,15.0,30.059,0.084,1.671,AVOID,1,5.75,1
36.50,10.002,1.676,-2.916,0.152,0.004,0.1,-0.2,15.0,30.045,0.084,1.676,AVOID,1,5.73,1
36.60,10.016,1.681,-2.915,0.155,0.002,0.1,-0.3,15.0,30.031,0.085,1.681,AVOID,1,5.72,1
36.70,10.031,1.686,-2.915,0.160,0.000,0.1,-0.5,15.0,30.016,0.085,1.686,AVOID,1,5.70,1
36.80,10.047,1.691,-2.915,0.167,-0.001,0.1,-0.5,15.0,30.001,0.085,1.691,AVOID,1,5.69,1
36.90,10.060,1.695,-2.915,0.174,-0.001,0.0,-0.6,14.9,29.988,0.085,1.695,AVOID,1,5.67,1
37.00,10.077,1.701,-2.915,0.185,-0.002,-0.0,-0.6,14.8,29.972,0.085,1.701,AVOID,1,5.66,1
37.10,10.095,1.707,-2.915,0.197,-0.002,-0.1,-0.5,14.7,29.954,0.085,1.707,AVOID,1,5.64,1
37.20,10.114,1.714,-2.915,0.211,-0.001,-0.1,-0.3,14.6,29.935,0.085,1.714,AVOID,1,5.62,1
37.30,10.135,1.721,-2.915,0.227,-0.001,-0.1,-0.1,14.5,29.914,0.085,1.721,AVOID,1,5.60,1
37.40,10.158,1.728,-2.915,0.244,-0.000,-0.1,0.1,14.4,29.892,0.085,1.728,AVOID,1,5.58,1
37.50,10.177,1.734,-2.915,0.258,0.000,-0.1,0.3,14.2,29.873,0.085,1.734,AVOID,1,5.56,1
37.60,10.203,1.742,-2.915,0.272,-0.000,-0.1,0.6,14.1,29.848,0.085,1.742,AVOID,1,5.53,1
37.70,10.229,1.750,-2.916,0.285,-0.001,-0.1,0.8,13.9,29.822,0.084,1.750,AVOID,1,5.51,1
37.80,10.257,1.759,-2.916,0.297,-0.003,-0.1,1.0,13.7,29.795,0.084,1.759,AVOID,1,5.48,1
37.90,10.280,1.766,-2.917,0.305,-0.005,-0.1,1.1,13.5,29.772,0.083,1.766,AVOID,1,5.45,1
38.00,10.310,1.775,-2.919,0.314,-0.009,-0.0,1.1,13.3,29.743,0.081,1.775,AVOID,1,5.43,1
38.10,10.341,1.785,-2.920,0.323,-0.013,0.0,1.0,13.0,29.713,0.080,1.785,AVOID,1,5.40,1
38.20,10.372,1.794,-2.922,0.319,-0.019,0.0,0.9,12.8,29.683,0.078,1.794,NAV,1,5.37,0
38.30,10.401,1.804,-2.925,0.304,-0.027,0.1,0.6,12.5,29.654,0.075,1.804,NAV,1,5.34,0
38.40,10.430,1.813,-2.928,0.291,-0.034,0.1,0.1,12.3,29.626,0.072,1.813,NAV,1,5.27,0
38.50,10.451,1.820,-2.931,0.282,-0.039,0.1,-0.3,12.0,29.605,0.069,1.820,NAV,1,5.25,0
38.60,10.478,1.829,-2.935,0.272,-0.042,0.1,-0.8,11.7,29.579,0.065,1.829,NAV,1,5.25,0
38.70,10.504,1.837,-2.939,0.265,-0.042,0.1,-1.3,11.4,29.554,0.061,1.837,NAV,1,5.22,0
38.80,10.529,1.846,-2.942,0.259,-0.040,0.1,-1.7,11.1,29.529,0.058,1.846,NAV,1,5.20,0
38.90,10.553,1.854,-2.945,0.254,-0.035,0.0,-2.0,10.7,29.505,0.055,1.854,NAV,1,5.18,0
39.00,10.577,1.863,-2.948,0.250,-0.030,0.0,-2.1,10.3,29.482,0.052,1.863,NAV,1,5.16,0
39.10,10.596,1.870,-2.949,0.248,-0.025,0.0,-2.1,10.0,29.463,0.051,1.870,NAV,1,5.14,0
39.20,10.620,1.878,-2.950,0.246,-0.017,-0.0,-2.0,9.6,29.440,0.050,1.878,AVOID,1,5.12,1
39.30,10.639,1.885,-2.951,0.244,-0.011,-0.0,-1.8,9.4,29.422,0.049,1.885,AVOID,1,5.10,1
39.40,10.662,1.893,-2.951,0.240,-0.004,-0.1,-1.5,9.1,29.399,0.049,1.893,AVOID,1,5.08,1
39.50,10.685,1.901,-2.950,0.235,0.003,-0.1,-1.1,9.0,29.377,0.050,1.901,AVOID,1,5.06,1
39.60,10.703,1.907,-2.949,0.230,0.007,-0.1,-0.8,8.9,29.359,0.051,1.907,AVOID,1,5.03,1
39.70,10.724,1.914,-2.948,0.224,0.012,-0.1,-0.5,8.9,29.338,0.052,1.914,AVOID,1,5.01,1
39.80,10.746,1.921,-2.946,0.218,0.017,-0.1,-0.2,8.9,29.317,0.054,1.921,AVOID,1,4.99,1
39.90,10.767,1.927,-2.945,0.213,0.020,-0.1,0.1,9.0,29.297,0.055,1.927,AVOID,1,4.96,1
40.00,10.787,1.934,-2.943,0.208,0.022,-0.1,0.2,9.2,29.277,0.057,1.934,AVOID,1,4.94,1
40.10,10.803,1.939,-2.941,0.206,0.023,-0.0,0.2,9.3,29.262,0.059,1.939,AVOID,1,4.92,1
40.20,10.823,1.945,-2.939,0.205,0.025,0.0,0.2,9.5,29.242,0.061,1.945,AVOID,1,4.90,1
40.30,10.842,1.951,-2.936,0.205,0.026,0.1,0.1,9.7,29.223,0.064,1.951,AVOID,1,4.87,1
40.40,10.862,1.958,-2.933,0.208,0.027,0.1,-0.0,9.8,29.204,0.067,1.958,AVOID,1,4.87,1
40.50,10.878,1.963,-2.931,0.212,0.028,0.1,-0.1,9.8,29.188,0.069,1.963,AVOID,1,4.83,1
40.60,10.899,1.969,-2.928,0.219,0.030,0.2,-0.3,9.7,29.168,0.072,1.969,AVOID,1,4.81,1
40.70,10.921,1.976,-2.925,0.228,0.031,0.2,-0.5,9.7,29.147,0.075,1.976,AVOID,1,4.81,1
40.80,10.943,1.983,-2.922,0.240,0.032,0.2,-0.6,9.6,29.125,0.078,1.983,AVOID,1,4.79,1
40.90,10.962,1.989,-2.919,0.251,0.032,0.2,-0.6,9.5,29.106,0.081,1.989,AVOID,1,4.77,1
41.00,10.987,1.996,-2.915,0.265,0.032,0.1,-0.6,9.3,29.082,0.085,1.996,AVOID,1,4.75,1
41.10,11.008,2.003,-2.912,0.276,0.031,0.1,-0.6,9.2,29.061,0.088,2.003,AVOID,1,4.72,1
41.20,11.030,2.009,-2.910,0.285,0.030,0.1,-0.5,9.1,29.040,0.090,2.009,AVOID,1,4.70,1
41.30,11.058,2.017,-2.907,0.296,0.027,0.0,-0.4,8.9,29.012,0.093,2.017,AVOID,1,4.67,1
41.40,11.081,2.023,-2.905,0.303,0.024,0.0,-0.3,8.8,28.990,0.095,2.023,AVOID,1,4.64,1
41.50,11.111,2.031,-2.902,0.311,0.020,-0.0,-0.1,8.7,28.960,0.098,2.031,AVOID,1,4.64,1
41.60,11.135,2.038,-2.901,0.316,0.016,-0.0,-0.0,8.5,28.936,0.099,2.038,AVOID,1,4.61,1
41.70,11.167,2.046,-2.900,0.322,0.012,-0.1,0.1,8.4,28.906,0.100,2.046,AVOID,1,4.58,1
41.80,11.198,2.053,-2.899,0.327,0.006,-0.1,0.2,8.5,28.875,0.101,2.053,AVOID,1,4.55,1
41.90,11.230,2.061,-2.899,0.331,0.001,-0.1,0.2,8.6,28.843,0.101,2.061,AVOID,1,4.52,1
42.00,11.263,2.069,-2.899,0.335,-0.005,-0.0,0.2,8.6,28.812,0.101,2.069,AVOID,1,4.49,1
42.10,11.296,2.077,-2.900,0.338,-0.011,-0.0,0.1,8.5,28.779,0.100,2.077,AVOID,1,4.45,1
42.20,11.322,2.083,-2.901,0.340,-0.016,0.0,0.0,8.4,28.753,0.099,2.083,AVOID,1,4.42,1
42.30,11.355,2.091,-2.903,0.342,-0.022,0.0,-0.1,8.3,28.721,0.097,2.091,AVOID,1,4.39,1
42.40,11.389,2.099,-2.905,0.344,-0.028,0.1,-0.2,8.2,28.688,0.095,2.099,AVOID,1,4.36,1
42.50,11.423,2.107,-2.908,0.346,-0.033,0.1,-0.3,8.0,28.655,0.092,2.107,AVOID,1,4.32,1
42.60,11.457,2.115,-2.912,0.348,-0.037,0.1,-0.4,7.8,28.622,0.088,2.115,AVOID,1,4.29,1
42.70,11.484,2.122,-2.915,0.349,-0.039,0.1,-0.4,7.7,28.595,0.085,2.122,AVOID,1,4.26,1
42.80,11.518,2.130,-2.918,0.350,-0.041,0.1,-0.5,7.6,28.561,0.082,2.130,AVOID,1,4.23,1
42.90,11.552,2.138,-2.922,0.351,-0.040,0.1,-0.5,7.6,28.528,0.078,2.138,AVOID,1,4.21,1
43.00,11.587,2.145,-2.926,0.352,-0.038,0.1,-0.4,7.7,28.494,0.074,2.145,AVOID,1,4.22,1
43.10,11.615,2.151,-2.928,0.352,-0.035,0.0,-0.4,7.7,28.467,0.072,2.151,AVOID,1,4.18,1
43.20,11.649,2.159,-2.931,0.353,-0.031,-0.0,-0.3,7.7,28.433,0.069,2.159,AVOID,1,4.15,1
43.30,11.684,2.167,-2.934,0.352,-0.027,-0.0,-0.2,7.6,28.399,0.066,2.167,AVOID,1,4.11,1
43.40,11.718,2.175,-2.936,0.351,-0.023,-0.1,-0.2,7.5,28.365,0.064,2.175,AVOID,1,4.08,1
43.50,11.752,2.183,-2.938,0.350,-0.020,-0.1,-0.1,7.4,28.332,0.062,2.183,AVOID,1,4.04,1
43.60,11.787,2.190,-2.940,0.348,-0.017,-0.1,-0.1,7.3,28.298,0.060,2.190,AVOID,1,4.01,1
43.70,11.814,2.196,-2.941,0.347,-0.015,-0.1,-0.1,7.1,28.272,0.059,2.196,AVOID,1,3.98,1
43.80,11.848,2.204,-2.943,0.345,-0.012,-0.0,-0.1,7.0,28.238,0.057,2.204,AVOID,1,3.95,1
43.90,11.882,2.211,-2.944,0.343,-0.011,-0.0,-0.2,6.8,28.205,0.056,2.211,AVOID,1,3.91,1
44.00,11.915,2.219,-2.945,0.342,-0.009,0.0,-0.3,6.7,28.172,0.055,2.219,AVOID,1,3.88,1
44.10,11.949,2.226,-2.945,0.340,-0.007,0.1,-0.4,6.6,28.140,0.055,2.226,AVOID,1,3.85,1
44.20,11.975,2.231,-2.946,0.339,-0.006,0.1,-0.4,6.6,28.113,0.054,2.231,AVOID,1,3.85,1
44.30,12.009,2.238,-2.946,0.337,-0.004,0.1,-0.6,6.7,28.081,0.054,2.238,AVOID,1,3.81,1
44.40,12.042,2.245,-2.946,0.336,-0.002,0.1,-0.7,6.7,28.048,0.054,2.245,AVOID,1,3.78,1
44.50,12.074,2.252,-2.945,0.334,-0.000,0.1,-0.8,6.7,28.016,0.055,2.252,AVOID,1,3.74,1
44.60,12.107,2.259,-2.945,0.332,0.002,0.1,-0.8,6.6,27.984,0.055,2.259,AVOID,1,3.71,1
44.70,12.133,2.265,-2.944,0.331,0.004,0.1,-0.9,6.5,27.959,0.056,2.265,AVOID,1,3.68,1
44.80,12.166,2.272,-2.943,0.330,0.007,0.1,-0.9,6.4,27.927,0.057,2.272,AVOID,1,3.65,1
44.90,12.198,2.279,-2.942,0.328,0.010,0.0,-0.9,6.3,27.895,0.058,2.279,AVOID,1,3.61,1
45.00,12.230,2.285,-2.940,0.326,0.013,0.0,-0.9,6.1,27.864,0.060,2.285,AVOID,1,3.58,1
45.10,12.262,2.292,-2.938,0.324,0.015,-0.0,-0.9,6.0,27.833,0.062,2.292,AVOID,1,3.55,1
45.20,12.294,2.299,-2.936,0.322,0.018,-0.0,-0.9,5.9,27.802,0.064,2.299,AVOID,1,3.52,1
45.30,12.325,2.306,-2.933,0.319,0.021,-0.0,-0.8,5.7,27.771,0.067,2.306,AVOID,1,3.49,1
45.40,12.350,2.311,-2.931,0.317,0.022,-0.0,-0.8,5.6,27.746,0.069,2.311,AVOID,1,3.46,1
45.50,12.381,2.317,-2.929,0.315,0.025,-0.0,-0.7,5.5,27.716,0.071,2.317,AVOID,1,3.43,1
45.60,12.412,2.324,-2.926,0.312,0.026,0.0,-0.7,5.3,27.686,0.074,2.324,AVOID,1,3.40,1
45.70,12.443,2.330,-2.923,0.309,0.028,0.0,-0.7,5.3,27.656,0.077,2.330,AVOID,1,3.37,1
45.80,12.473,2.336,-2.919,0.307,0.028,0.1,-0.7,5.4,27.626,0.081,2.336,AVOID,1,3.34,1
45.90,12.497,2.340,-2.917,0.305,0.027,0.1,-0.7,5.4,27.602,0.083,2.340,AVOID,1,3.30,1
46.00,12.527,2.346,-2.914,0.302,0.026,0.1,-0.8,5.4,27.573,0.086,2.346,AVOID,1,3.30,1
46.10,12.557,2.352,-2.911,0.300,0.023,0.1,-0.8,5.4,27.544,0.089,2.352,AVOID,1,3.31,1
46.20,12.586,2.358,-2.908,0.298,0.021,0.1,-0.8,5.3,27.515,0.092,2.358,AVOID,1,3.30,1
46.30,12.615,2.364,-2.906,0.296,0.019,0.1,-0.9,5.2,27.487,0.094,2.364,AVOID,1,3.27,1
46.40,12.644,2.370,-2.904,0.294,0.016,0.1,-0.9,5.1,27.458,0.096,2.370,AVOID,1,3.24,1
46.50,12.673,2.376,-2.902,0.293,0.015,0.1,-0.9,5.0,27.430,0.098,2.376,AVOID,1,3.21,1
46.60,12.696,2.380,-2.900,0.291,0.013,0.1,-0.9,4.9,27.407,0.100,2.380,AVOID,1,3.18,1
46.70,12.719,2.385,-2.899,0.290,0.012,0.1,-0.9,4.8,27.385,0.101,2.385,AVOID,1,3.18,1
46.80,12.748,2.391,-2.897,0.288,0.011,0.0,-0.9,4.6,27.357,0.103,2.391,AVOID,1,3.15,1
46.90,12.776,2.396,-2.896,0.286,0.009,0.0,-0.8,4.5,27.329,0.104,2.396,AVOID,1,3.13,1
47.00,12.804,2.402,-2.895,0.284,0.008,0.0,-0.8,4.4,27.302,0.105,2.402,AVOID,1,3.10,1
47.10,12.832,2.407,-2.894,0.282,0.007,0.0,-0.7,4.3,27.274,0.106,2.407,AVOID,1,3.07,1
47.20,12.860,2.413,-2.893,0.279,0.005,-0.0,-0.7,4.1,27.247,0.107,2.413,AVOID,1,3.04,1
47.30,12.882,2.417,-2.892,0.278,0.004,-0.0,-0.6,4.1,27.226,0.108,2.417,AVOID,1,3.01,1
47.40,12.909,2.422,-2.891,0.275,0.003,-0.0,-0.6,3.9,27.199,0.109,2.422,AVOID,1,2.99,1
47.50,12.936,2.428,-2.891,0.273,0.001,0.0,-0.5,3.8,27.173,0.109,2.428,AVOID,1,2.96,1
47.60,12.963,2.433,-2.891,0.270,-0.000,0.0,-0.5,3.8,27.146,0.109,2.433,AVOID,1,2.93,1
47.70,12.990,2.437,-2.890,0.268,-0.002,0.0,-0.5,3.9,27.120,0.110,2.437,AVOID,1,2.90,1
47.80,13.016,2.442,-2.890,0.266,-0.003,0.0,-0.5,4.0,27.094,0.110,2.442,AVOID,1,2.87,1
47.90,13.042,2.447,-2.891,0.263,-0.005,0.0,-0.5,3.9,27.069,0.109,2.447,AVOID,1,2.84,1
48.00,13.068,2.452,-2.891,0.261,-0.007,0.0,-0.5,3.9,27.043,0.109,2.452,AVOID,1,2.82,1
48.10,13.094,2.456,-2.891,0.259,-0.008,0.0,-0.6,3.8,27.018,0.109,2.456,AVOID,1,2.79,1
48.20,13.119,2.461,-2.892,0.257,-0.010,0.1,-0.6,3.7,26.993,0.108,2.461,AVOID,1,2.76,1
48.30,13.140,2.465,-2.893,0.255,-0.011,0.1,-0.6,3.7,26.973,0.107,2.465,AVOID,1,2.74,1
48.40,13.165,2.470,-2.894,0.253,-0.012,0.0,-0.6,3.5,26.948,0.106,2.470,AVOID,1,2.71,1
48.50,13.190,2.474,-2.894,0.251,-0.013,0.0,-0.6,3.4,26.924,0.106,2.474,AVOID,1,2.69,1
48.60,13.215,2.479,-2.896,0.249,-0.013,0.0,-0.6,3.3,26.900,0.104,2.479,AVOID,1,2.66,1
48.70,13.239,2.484,-2.897,0.247,-0.014,0.0,-0.6,3.2,26.876,0.103,2.484,AVOID,1,2.64,1
48.80,13.264,2.488,-2.898,0.245,-0.015,0.0,-0.6,3.1,26.852,0.102,2.488,AVOID,1,2.64,1
48.90,13.288,2.493,-2.899,0.244,-0.015,0.0,-0.6,3.0,26.828,0.101,2.493,AVOID,1,2.64,1
49.00,13.312,2.497,-2.900,0.242,-0.016,0.0,-0.6,2.9,26.805,0.100,2.497,AVOID,1,2.63,1
49.10,13.336,2.502,-2.902,0.240,-0.016,0.0,-0.5,2.8,26.781,0.098,2.502,AVOID,1,2.61,1
49.20,13.360,2.506,-2.903,0.238,-0.016,0.0,-0.5,2.7,26.758,0.097,2.506,AVOID,1,2.59,1
49.30,13.379,2.509,-2.904,0.237,-0.017,0.0,-0.5,2.6,26.739,0.096,2.509,AVOID,1,2.56,1
49.40,13.402,2.514,-2.906,0.235,-0.017,0.0,-0.4,2.5,26.716,0.094,2.514,AVOID,1,2.54,1
49.50,13.425,2.518,-2.907,0.233,-0.018,0.0,-0.4,2.4,26.694,0.093,2.518,AVOID,1,2.52,1
49.60,13.448,2.522,-2.909,0.231,-0.019,0.0,-0.4,2.2,26.671,0.091,2.522,AVOID,1,2.49,1
49.70,13.471,2.526,-2.911,0.229,-0.019,0.0,-0.4,2.1,26.649,0.089,2.526,AVOID,1,2.47,1
49.80,13.494,2.530,-2.913,0.227,-0.020,0.0,-0.4,2.0,26.626,0.087,2.530,AVOID,1,2.44,1
49.90,13.517,2.534,-2.914,0.225,-0.020,0.0,-0.4,1.9,26.604,0.086,2.534,AVOID,1,2.42,1
50.00,13.539,2.538,-2.916,0.224,-0.021,0.0,-0.4,1.8,26.583,0.084,2.538,AVOID,1,2.40,1
50.10,13.561,2.542,-2.918,0.222,-0.022,0.0,-0.4,1.8,26.561,0.082,2.542,AVOID,1,2.37,1
50.20,13.583,2.545,-2.920,0.220,-0.022,0.0,-0.5,1.8,26.539,0.080,2.545,AVOID,1,2.35,1
50.30,13.605,2.549,-2.922,0.219,-0.023,0.0,-0.5,1.8,26.518,0.078,2.549,AVOID,1,2.32,1
50.40,13.622,2.552,-2.924,0.217,-0.023,0.0,-0.5,1.8,26.501,0.076,2.552,AVOID,1,2.31,1
50.50,13.639,2.554,-2.926,0.216,-0.023,0.0,-0.5,1.8,26.484,0.074,2.554,AVOID,1,2.31,1
50.60,13.661,2.558,-2.928,0.214,-0.023,0.0,-0.5,1.8,26.463,0.072,2.558,AVOID,1,2.31,1
50.70,13.682,2.562,-2.930,0.213,-0.023,0.0,-0.5,1.7,26.442,0.070,2.562,AVOID,1,2.31,1
50.80,13.703,2.565,-2.932,0.212,-0.023,0.0,-0.5,1.6,26.421,0.068,2.565,AVOID,1,2.31,1
50.90,13.724,2.569,-2.934,0.211,-0.023,0.0,-0.5,1.5,26.401,0.066,2.569,AVOID,1,2.31,1
51.00,13.745,2.572,-2.936,0.209,-0.023,0.0,-0.5,1.4,26.380,0.064,2.572,AVOID,1,2.31,1
51.10,13.766,2.576,-2.939,0.208,-0.023,0.0,-0.5,1.3,26.360,0.061,2.576,AVOID,1,2.31,1
51.20,13.783,2.578,-2.940,0.207,-0.023,0.0,-0.4,1.2,26.344,0.060,2.578,AVOID,1,2.30,1
51.30,13.803,2.582,-2.942,0.206,-0.023,0.0,-0.4,1.1,26.324,0.058,2.582,AVOID,1,2.30,1
51.40,13.824,2.585,-2.945,0.205,-0.023,0.0,-0.4,1.0,26.304,0.055,2.585,AVOID,1,2.30,1
51.50,13.844,2.588,-2.947,0.204,-0.023,0.0,-0.4,0.9,26.284,0.053,2.588,AVOID,1,2.29,1
51.60,13.864,2.592,-2.949,0.203,-0.023,0.0,-0.3,0.8,26.264,0.051,2.592,AVOID,1,2.29,1
51.70,13.885,2.595,-2.951,0.201,-0.023,0.0,-0.3,0.7,26.244,0.049,2.595,AVOID,1,2.29,1
51.80,13.905,2.598,-2.953,0.200,-0.023,0.0,-0.3,0.6,26.224,0.047,2.598,AVOID,1,2.28,1
51.90,13.925,2.601,-2.955,0.199,-0.023,0.0,-0.3,0.5,26.205,0.045,2.601,AVOID,1,2.28,1
52.00,13.944,2.604,-2.958,0.198,-0.023,0.0,-0.3,0.4,26.185,0.042,2.604,AVOID,1,2.27,1
52.10,13.960,2.607,-2.959,0.198,-0.024,0.0,-0.4,0.3,26.170,0.041,2.607,AVOID,1,2.27,1
52.20,13.980,2.610,-2.962,0.197,-0.024,0.0,-0.4,0.2,26.151,0.038,2.610,AVOID,1,2.26,1
52.30,14.000,2.613,-2.964,0.196,-0.024,0.0,-0.4,0.1,26.131,0.036,2.613,AVOID,1,2.26,1
52.40,14.019,2.616,-2.966,0.195,-0.024,0.0,-0.4,0.1,26.112,0.034,2.616,AVOID,1,2.26,1
52.50,14.039,2.618,-2.968,0.195,-0.024,0.0,-0.4,0.1,26.093,0.032,2.618,AVOID,1,2.26,1
52.60,14.058,2.621,-2.971,0.194,-0.023,-0.0,-0.4,0.1,26.074,0.029,2.621,AVOID,1,2.27,1
52.70,14.078,2.624,-2.973,0.194,-0.023,-0.0,-0.4,0.1,26.055,0.027,2.624,AVOID,1,2.28,1
52.80,14.097,2.627,-2.975,0.193,-0.023,-0.0,-0.5,0.1,26.036,0.025,2.627,AVOID,1,2.28,1
52.90,14.116,2.629,-2.977,0.193,-0.023,-0.0,-0.4,-0.0,26.017,0.023,2.629,AVOID,1,2.28,1
53.00,14.132,2.632,-2.979,0.193,-0.022,-0.0,-0.4,-0.1,26.002,0.021,2.632,AVOID,1,2.28,1
53.10,14.151,2.634,-2.981,0.192,-0.022,-0.0,-0.4,-0.2,25.983,0.019,2.634,AVOID,1,2.28,1
53.20,14.170,2.637,-2.983,0.192,-0.022,0.0,-0.4,-0.3,25.964,0.017,2.637,AVOID,1,2.27,1
53.30,14.189,2.640,-2.985,0.191,-0.022,0.0,-0.4,-0.4,25.945,0.015,2.640,AVOID,1,2.27,1
53.40,14.209,2.642,-2.987,0.191,-0.021,0.0,-0.4,-0.5,25.926,0.013,2.642,AVOID,1,2.26,1
53.50,14.228,2.645,-2.989,0.190,-0.021,0.0,-0.3,-0.6,25.908,0.011,2.645,AVOID,1,2.26,1
53.60,14.247,2.647,-2.991,0.190,-0.021,0.0,-0.3,-0.7,25.889,0.009,2.647,AVOID,1,2.25,1
53.70,14.262,2.649,-2.993,0.189,-0.021,0.0,-0.3,-0.8,25.874,0.007,2.649,AVOID,1,2.25,1
53.80,14.281,2.652,-2.995,0.189,-0.021,0.0,-0.3,-0.9,25.856,0.005,2.652,AVOID,1,2.24,1
53.90,14.300,2.654,-2.997,0.188,-0.021,0.0,-0.3,-1.0,25.837,0.003,2.654,AVOID,1,2.24,1
54.00,14.319,2.657,-2.998,0.188,-0.021,0.0,-0.3,-1.1,25.819,0.002,2.657,AVOID,1,2.23,1
54.10,14.337,2.659,-3.000,0.187,-0.021,0.0,-0.3,-1.2,25.800,-0.000,2.659,AVOID,1,2.22,1
54.20,14.356,2.662,-3.002,0.187,-0.020,0.0,-0.4,-1.3,25.782,-0.002,2.662,AVOID,1,2.22,1
54.30,14.375,2.664,-3.004,0.186,-0.020,0.0,-0.4,-1.4,25.763,-0.004,2.664,AVOID,1,2.22,1
54.40,14.393,2.666,-3.006,0.186,-0.020,0.0,-0.4,-1.4,25.745,-0.006,2.666,AVOID,1,2.22,1
54.50,14.408,2.668,-3.008,0.186,-0.020,-0.0,-0.4,-1.3,25.730,-0.008,2.668,AVOID,1,2.23,1
54.60,14.427,2.669,-3.009,0.185,-0.020,-0.0,-0.4,-1.2,25.712,-0.009,2.669,AVOID,1,2.23,1
54.70,14.446,2.671,-3.011,0.185,-0.019,-0.0,-0.4,-1.1,25.694,-0.011,2.671,AVOID,1,2.24,1
54.80,14.464,2.673,-3.013,0.185,-0.019,-0.0,-0.4,-0.9,25.675,-0.013,2.673,AVOID,1,2.26,1
54.90,14.483,2.675,-3.015,0.185,-0.019,-0.0,-0.4,-0.7,25.657,-0.015,2.675,AVOID,1,2.28,1
55.00,14.501,2.676,-3.017,0.185,-0.018,-0.0,-0.4,-0.6,25.639,-0.017,2.676,AVOID,1,2.30,1
55.10,14.520,2.678,-3.018,0.186,-0.018,-0.0,-0.4,-0.6,25.621,-0.018,2.678,AVOID,1,2.31,1
55.20,14.538,2.680,-3.020,0.186,-0.017,-0.0,-0.4,-0.7,25.602,-0.020,2.680,AVOID,1,2.32,1
55.30,14.557,2.682,-3.021,0.186,-0.017,-0.0,-0.4,-0.7,25.584,-0.021,2.682,AVOID,1,2.32,1
55.40,14.572,2.684,-3.023,0.186,-0.017,0.0,-0.4,-0.8,25.569,-0.023,2.684,AVOID,1,2.32,1
55.50,14.591,2.686,-3.024,0.186,-0.016,0.0,-0.3,-0.9,25.551,-0.024,2.686,AVOID,1,2.31,1
55.60,14.609,2.688,-3.026,0.186,-0.016,0.0,-0.3,-1.0,25.533,-0.026,2.688,AVOID,1,2.31,1
55.70,14.628,2.690,-3.027,0.186,-0.016,0.1,-0.3,-1.1,25.514,-0.027,2.690,AVOID,1,2.30,1
55.80,14.646,2.692,-3.029,0.185,-0.016,0.1,-0.3,-1.2,25.496,-0.029,2.692,AVOID,1,2.29,1
55.90,14.665,2.693,-3.030,0.185,-0.015,0.1,-0.3,-1.3,25.478,-0.030,2.693,AVOID,1,2.28,1
56.00,14.680,2.695,-3.031,0.185,-0.015,0.1,-0.3,-1.4,25.463,-0.031,2.695,AVOID,1,2.28,1
56.10,14.698,2.697,-3.033,0.185,-0.015,0.1,-0.3,-1.5,25.445,-0.033,2.697,AVOID,1,2.27,1
56.20,14.717,2.699,-3.034,0.185,-0.015,0.1,-0.4,-1.7,25.427,-0.034,2.699,AVOID,1,2.26,1
56.30,14.735,2.701,-3.035,0.184,-0.015,0.0,-0.4,-1.8,25.409,-0.035,2.701,AVOID,1,2.25,1
56.40,14.754,2.702,-3.037,0.184,-0.015,0.0,-0.4,-1.9,25.390,-0.037,2.702,AVOID,1,2.25,1
56.50,14.772,2.704,-3.038,0.184,-0.015,0.0,-0.4,-2.0,25.372,-0.038,2.704,AVOID,1,2.24,1
56.60,14.791,2.706,-3.039,0.184,-0.014,-0.0,-0.4,-2.1,25.354,-0.039,2.706,AVOID,1,2.23,1
56.70,14.809,2.708,-3.041,0.184,-0.014,-0.0,-0.5,-2.2,25.336,-0.041,2.708,AVOID,1,2.22,1
56.80,14.828,2.709,-3.042,0.183,-0.014,-0.0,-0.5,-2.4,25.318,-0.042,2.709,AVOID,1,2.22,1
56.90,14.846,2.711,-3.043,0.183,-0.013,-0.0,-0.5,-2.5,25.299,-0.043,2.711,AVOID,1,2.21,1
57.00,14.865,2.713,-3.044,0.183,-0.013,-0.0,-0.5,-2.6,25.281,-0.044,2.713,AVOID,1,2.20,1
57.10,14.883,2.714,-3.045,0.183,-0.012,-0.0,-0.5,-2.7,25.263,-0.045,2.714,AVOID,1,2.19,1
57.20,14.898,2.715,-3.046,0.182,-0.012,-0.0,-0.5,-2.8,25.249,-0.046,2.715,AVOID,1,2.19,1
57.30,14.916,2.717,-3.047,0.182,-0.012,0.0,-0.4,-2.9,25.231,-0.047,2.717,AVOID,1,2.18,1
57.40,14.934,2.718,-3.048,0.182,-0.011,0.0,-0.4,-3.1,25.213,-0.048,2.718,AVOID,1,2.17,1
57.50,14.952,2.720,-3.049,0.181,-0.011,0.0,-0.4,-3.2,25.195,-0.049,2.720,AVOID,1,2.16,1
57.60,14.971,2.721,-3.050,0.181,-0.011,0.0,-0.4,-3.3,25.177,-0.050,2.721,AVOID,1,2.16,1
57.70,14.989,2.723,-3.051,0.180,-0.010,0.1,-0.4,-3.4,25.159,-0.051,2.723,AVOID,1,2.15,1
57.80,15.007,2.724,-3.052,0.180,-0.010,0.1,-0.4,-3.5,25.141,-0.052,2.724,AVOID,1,2.14,1
57.90,15.025,2.725,-3.053,0.179,-0.010,0.1,-0.4,-3.6,25.123,-0.053,2.725,AVOID,1,2.14,1
58.00,15.039,2.726,-3.054,0.179,-0.010,0.1,-0.4,-3.7,25.109,-0.054,2.726,AVOID,1,2.13,1
58.10,15.057,2.728,-3.054,0.178,-0.010,0.1,-0.4,-3.8,25.091,-0.054,2.728,AVOID,1,2.12,1
58.20,15.068,2.728,-3.055,0.178,-0.010,0.0,-0.4,-3.9,25.081,-0.055,2.728,AVOID,1,2.12,1
58.30,15.086,2.730,-3.056,0.177,-0.009,0.0,-0.4,-4.0,25.063,-0.056,2.730,AVOID,1,2.12,1
58.40,15.104,2.731,-3.057,0.177,-0.009,0.0,-0.4,-4.1,25.045,-0.057,2.731,AVOID,1,2.11,1
58.50,15.122,2.732,-3.057,0.176,-0.009,0.0,-0.4,-4.2,25.028,-0.057,2.732,AVOID,1,2.10,1
58.60,15.140,2.733,-3.058,0.176,-0.009,0.0,-0.5,-4.3,25.010,-0.058,2.733,AVOID,1,2.09,1
58.70,15.154,2.734,-3.059,0.176,-0.009,-0.0,-0.5,-4.4,24.996,-0.059,2.734,AVOID,1,2.09,1
58.80,15.171,2.735,-3.059,0.175,-0.008,-0.0,-0.5,-4.5,24.979,-0.059,2.735,AVOID,1,2.08,1
58.90,15.189,2.736,-3.060,0.175,-0.008,-0.0,-0.5,-4.6,24.961,-0.060,2.736,AVOID,1,2.07,1
59.00,15.207,2.737,-3.061,0.174,-0.008,-0.0,-0.5,-4.8,24.944,-0.061,2.737,AVOID,1,2.07,1
59.10,15.224,2.739,-3.061,0.174,-0.007,0.0,-0.5,-4.9,24.927,-0.061,2.739,AVOID,1,2.06,1
59.20,15.242,2.739,-3.062,0.173,-0.007,0.0,-0.5,-5.0,24.909,-0.062,2.739,AVOID,1,2.05,1
59.30,15.256,2.740,-3.062,0.173,-0.007,0.0,-0.5,-5.0,24.896,-0.062,2.740,AVOID,1,2.05,1
59.40,15.273,2.741,-3.063,0.173,-0.007,0.0,-0.5,-4.9,24.878,-0.063,2.741,AVOID,1,2.06,1
59.50,15.290,2.741,-3.063,0.172,-0.006,0.0,-0.5,-4.8,24.861,-0.063,2.741,AVOID,1,2.06,1
59.60,15.308,2.742,-3.064,0.172,-0.006,0.0,-0.4,-4.7,24.844,-0.064,2.742,AVOID,1,2.08,1
59.70,15.325,2.742,-3.064,0.172,-0.006,0.0,-0.4,-4.5,24.827,-0.064,2.742,AVOID,1,2.09,1
59.80,15.339,2.742,-3.065,0.171,-0.006,0.0,-0.4,-4.3,24.813,-0.065,2.742,AVOID,1,2.10,1
59.90,15.356,2.743,-3.065,0.171,-0.005,0.0,-0.4,-4.2,24.796,-0.065,2.743,AVOID,1,2.12,1
60.00,15.373,2.743,-3.065,0.171,-0.005,-0.0,-0.4,-4.0,24.779,-0.065,2.743,AVOID,1,2.14,1
60.10,15.390,2.743,-3.066,0.171,-0.005,-0.0,-0.4,-3.8,24.762,-0.066,2.743,AVOID,1,2.15,1
60.20,15.408,2.744,-3.066,0.171,-0.005,-0.0,-0.4,-3.6,24.745,-0.066,2.744,AVOID,1,2.17,1
60.30,15.425,2.744,-3.066,0.171,-0.004,-0.0,-0.4,-3.4,24.728,-0.066,2.744,AVOID,1,2.19,1
60.40,15.439,2.744,-3.067,0.172,-0.004,-0.0,-0.4,-3.2,24.714,-0.067,2.744,AVOID,1,2.19,1
60.50,15.456,2.744,-3.067,0.172,-0.004,-0.0,-0.4,-3.0,24.697,-0.067,2.744,AVOID,1,2.21,1
60.60,15.473,2.744,-3.067,0.172,-0.004,-0.0,-0.4,-2.8,24.680,-0.067,2.744,AVOID,1,2.22,1
60.70,15.490,2.745,-3.067,0.173,-0.004,-0.0,-0.4,-2.7,24.663,-0.067,2.745,AVOID,1,2.24,1
60.80,15.508,2.745,-3.068,0.173,-0.003,-0.0,-0.4,-2.7,24.646,-0.068,2.745,AVOID,1,2.25,1
60.90,15.525,2.746,-3.068,0.173,-0.003,-0.0,-0.4,-2.7,24.629,-0.068,2.746,AVOID,1,2.25,1
61.00,15.539,2.746,-3.068,0.174,-0.003,0.0,-0.4,-2.8,24.615,-0.068,2.746,AVOID,1,2.25,1
61.10,15.556,2.747,-3.068,0.174,-0.003,0.0,-0.4,-2.9,24.598,-0.068,2.747,AVOID,1,2.24,1
61.20,15.574,2.747,-3.068,0.174,-0.003,0.0,-0.4,-3.0,24.580,-0.068,2.747,AVOID,1,2.24,1
61.30,15.591,2.748,-3.069,0.174,-0.003,0.1,-0.4,-3.1,24.563,-0.069,2.748,AVOID,1,2.23,1
61.40,15.609,2.749,-3.069,0.175,-0.002,0.1,-0.4,-3.2,24.546,-0.069,2.749,AVOID,1,2.22,1
61.50,15.623,2.749,-3.069,0.175,-0.002,0.1,-0.4,-3.3,24.532,-0.069,2.749,AVOID,1,2.21,1
61.60,15.640,2.750,-3.069,0.175,-0.002,0.1,-0.4,-3.4,24.514,-0.069,2.750,AVOID,1,2.20,1
61.70,15.658,2.750,-3.069,0.175,-0.002,0.1,-0.4,-3.6,24.497,-0.069,2.750,AVOID,1,2.19,1
61.80,15.672,2.751,-3.069,0.175,-0.002,0.1,-0.4,-3.7,24.483,-0.069,2.751,AVOID,1,2.18,1
61.90,15.689,2.751,-3.069,0.175,-0.002,0.0,-0.4,-3.8,24.466,-0.069,2.751,AVOID,1,2.17,1
62.00,15.707,2.752,-3.069,0.175,-0.002,0.0,-0.5,-3.9,24.448,-0.069,2.752,AVOID,1,2.16,1
62.10,15.725,2.752,-3.069,0.174,-0.001,0.0,-0.5,-4.1,24.431,-0.069,2.752,AVOID,1,2.15,1
62.20,15.739,2.753,-3.069,0.174,-0.001,0.0,-0.5,-4.2,24.417,-0.069,2.753,AVOID,1,2.14,1
62.30,15.756,2.753,-3.069,0.174,-0.001,-0.0,-0.5,-4.3,24.400,-0.069,2.753,AVOID,1,2.13,1
62.40,15.774,2.754,-3.069,0.174,-0.001,-0.0,-0.5,-4.4,24.383,-0.069,2.754,AVOID,1,2.12,1
62.50,15.791,2.754,-3.069,0.174,-0.001,-0.0,-0.5,-4.6,24.365,-0.069,2.754,AVOID,1,2.11,1
62.60,15.808,2.755,-3.069,0.173,-0.001,-0.0,-0.5,-4.7,24.348,-0.069,2.755,AVOID,1,2.11,1
62.70,15.826,2.755,-3.069,0.173,-0.000,-0.0,-0.5,-4.8,24.331,-0.069,2.755,AVOID,1,2.10,1
62.80,15.840,2.755,-3.069,0.173,-0.000,-0.0,-0.5,-4.9,24.317,-0.069,2.755,AVOID,1,2.09,1
62.90,15.857,2.756,-3.068,0.173,-0.000,0.0,-0.5,-5.1,24.300,-0.068,2.756,AVOID,1,2.08,1
63.00,15.874,2.756,-3.068,0.172,-0.000,0.0,-0.5,-5.2,24.282,-0.068,2.756,AVOID,1,2.07,1
63.10,15.892,2.756,-3.068,0.172,0.000,0.0,-0.5,-5.3,24.265,-0.068,2.756,AVOID,1,2.06,1
63.20,15.906,2.757,-3.068,0.171,0.000,0.0,-0.5,-5.4,24.252,-0.068,2.757,AVOID,1,2.05,1
63.30,15.923,2.757,-3.068,0.171,0.000,0.1,-0.5,-5.5,24.235,-0.068,2.757,AVOID,1,2.04,1
63.40,15.940,2.757,-3.068,0.171,0.000,0.1,-0.5,-5.7,24.218,-0.068,2.757,AVOID,1,2.04,1
63.50,15.957,2.757,-3.067,0.170,0.001,0.1,-0.5,-5.8,24.201,-0.067,2.757,AVOID,1,2.03,1
63.60,15.971,2.757,-3.067,0.170,0.001,0.1,-0.5,-5.8,24.187,-0.067,2.757,AVOID,1,2.02,1
63.70,15.984,2.757,-3.067,0.169,0.001,0.1,-0.5,-5.9,24.173,-0.067,2.757,AVOID,1,2.01,1
63.80,16.001,2.757,-3.067,0.169,0.001,0.0,-0.5,-5.8,24.157,-0.067,2.757,AVOID,1,2.02,1
63.90,16.015,2.757,-3.067,0.169,0.001,0.0,-0.5,-5.7,24.143,-0.067,2.757,AVOID,1,2.02,1
64.00,16.032,2.757,-3.067,0.168,0.001,0.0,-0.5,-5.6,24.126,-0.067,2.757,AVOID,1,2.03,1
64.10,16.045,2.757,-3.066,0.168,0.001,-0.0,-0.5,-5.5,24.113,-0.066,2.757,AVOID,1,2.03,1
64.20,16.059,2.757,-3.066,0.168,0.001,-0.0,-0.5,-5.4,24.099,-0.066,2.757,AVOID,1,2.04,1
64.30,16.076,2.756,-3.066,0.168,0.001,-0.0,-0.5,-5.2,24.083,-0.066,2.756,AVOID,1,2.05,1
64.40,16.092,2.756,-3.066,0.167,0.001,-0.1,-0.5,-5.0,24.066,-0.066,2.756,AVOID,1,2.06,1
64.50,16.109,2.755,-3.065,0.167,0.002,-0.1,-0.5,-4.9,24.049,-0.065,2.755,AVOID,1,2.08,1
64.60,16.122,2.755,-3.065,0.167,0.002,-0.1,-0.5,-4.7,24.036,-0.065,2.755,AVOID,1,2.09,1
64.70,16.139,2.754,-3.065,0.167,0.002,-0.1,-0.5,-4.5,24.019,-0.065,2.754,AVOID,1,2.11,1
64.80,16.156,2.754,-3.064,0.167,0.002,-0.1,-0.5,-4.3,24.003,-0.064,2.754,AVOID,1,2.12,1
64.90,16.173,2.753,-3.064,0.168,0.002,-0.0,-0.5,-4.1,23.986,-0.064,2.753,AVOID,1,2.13,1
65.00,16.189,2.753,-3.064,0.168,0.002,-0.0,-0.5,-4.0,23.969,-0.064,2.753,AVOID,1,2.15,1
65.10,16.206,2.752,-3.063,0.168,0.002,-0.0,-0.5,-3.8,23.952,-0.063,2.752,AVOID,1,2.16,1
65.20,16.220,2.752,-3.063,0.168,0.002,0.0,-0.5,-3.7,23.939,-0.063,2.752,AVOID,1,2.18,1
65.30,16.237,2.752,-3.063,0.169,0.002,0.0,-0.4,-3.6,23.922,-0.063,2.752,AVOID,1,2.18,1
65.40,16.253,2.751,-3.062,0.169,0.002,0.0,-0.4,-3.6,23.905,-0.062,2.751,AVOID,1,2.18,1
65.50,16.267,2.751,-3.062,0.169,0.002,0.0,-0.4,-3.6,23.892,-0.062,2.751,AVOID,1,2.18,1
65.60,16.281,2.751,-3.062,0.169,0.002,0.1,-0.4,-3.7,23.878,-0.062,2.751,AVOID,1,2.18,1
65.70,16.298,2.751,-3.061,0.169,0.003,0.1,-0.4,-3.8,23.862,-0.061,2.751,AVOID,1,2.17,1
65.80,16.315,2.751,-3.061,0.170,0.003,0.1,-0.4,-3.9,23.845,-0.061,2.751,AVOID,1,2.17,1
65.90,16.332,2.751,-3.061,0.170,0.002,0.1,-0.4,-4.0,23.828,-0.061,2.751,AVOID,1,2.16,1
66.00,16.349,2.751,-3.060,0.170,0.002,0.0,-0.4,-4.1,23.811,-0.060,2.751,AVOID,1,2.15,1
66.10,16.366,2.751,-3.060,0.170,0.002,0.0,-0.5,-4.3,23.794,-0.060,2.751,AVOID,1,2.14,1
66.20,16.379,2.751,-3.060,0.170,0.002,0.0,-0.5,-4.4,23.781,-0.060,2.751,AVOID,1,2.13,1
66.30,16.396,2.751,-3.059,0.170,0.002,0.0,-0.5,-4.5,23.764,-0.059,2.751,AVOID,1,2.11,1
66.40,16.413,2.751,-3.059,0.170,0.002,-0.0,-0.5,-4.7,23.747,-0.059,2.751,AVOID,1,2.10,1
66.50,16.430,2.751,-3.058,0.169,0.002,-0.0,-0.5,-4.8,23.730,-0.058,2.751,AVOID,1,2.09,1
66.60,16.444,2.751,-3.058,0.169,0.002,-0.0,-0.5,-4.9,23.716,-0.058,2.751,AVOID,1,2.08,1
66.70,16.461,2.751,-3.058,0.169,0.002,-0.0,-0.5,-5.1,23.699,-0.058,2.751,AVOID,1,2.07,1
66.80,16.478,2.751,-3.057,0.169,0.003,-0.0,-0.5,-5.2,23.683,-0.057,2.751,AVOID,1,2.06,1
66.90,16.495,2.750,-3.057,0.169,0.003,-0.0,-0.5,-5.3,23.666,-0.057,2.750,AVOID,1,2.05,1
67.00,16.512,2.750,-3.056,0.168,0.003,-0.0,-0.5,-5.5,23.649,-0.056,2.750,AVOID,1,2.04,1
67.10,16.525,2.750,-3.056,0.168,0.003,0.0,-0.5,-5.6,23.635,-0.056,2.750,AVOID,1,2.03,1
67.20,16.542,2.750,-3.056,0.168,0.003,0.0,-0.5,-5.7,23.619,-0.056,2.750,AVOID,1,2.02,1
67.30,16.559,2.750,-3.055,0.168,0.003,0.0,-0.5,-5.8,23.602,-0.055,2.750,AVOID,1,2.01,1
67.40,16.576,2.750,-3.055,0.167,0.003,0.0,-0.5,-6.0,23.585,-0.055,2.750,AVOID,1,1.99,1
67.50,16.592,2.749,-3.054,0.167,0.003,0.0,-0.5,-6.1,23.569,-0.054,2.749,AVOID,1,1.98,1
67.60,16.609,2.749,-3.054,0.166,0.003,0.1,-0.5,-6.2,23.552,-0.054,2.749,AVOID,1,1.97,1
67.70,16.622,2.749,-3.054,0.166,0.003,0.1,-0.5,-6.3,23.539,-0.054,2.749,AVOID,1,1.97,1
67.80,16.639,2.748,-3.053,0.165,0.003,0.0,-0.5,-6.3,23.522,-0.053,2.748,AVOID,1,1.96,1
67.90,16.655,2.748,-3.053,0.165,0.003,0.0,-0.5,-6.3,23.506,-0.053,2.748,AVOID,1,1.96,1
68.00,16.672,2.747,-3.052,0.164,0.003,0.0,-0.5,-6.2,23.489,-0.052,2.747,AVOID,1,1.97,1
68.10,16.688,2.746,-3.052,0.164,0.003,0.0,-0.5,-6.1,23.473,-0.052,2.746,AVOID,1,1.98,1
68.20,16.702,2.746,-3.052,0.164,0.003,-0.0,-0.5,-6.0,23.460,-0.052,2.746,AVOID,1,1.98,1
68.30,16.718,2.745,-3.051,0.163,0.003,-0.0,-0.5,-5.8,23.443,-0.051,2.745,AVOID,1,1.99,1
68.40,16.734,2.744,-3.051,0.163,0.003,-0.0,-0.5,-5.7,23.427,-0.051,2.744,AVOID,1,2.00,1
68.50,16.751,2.743,-3.050,0.163,0.003,-0.1,-0.5,-5.5,23.411,-0.050,2.743,AVOID,1,2.01,1
68.60,16.767,2.742,-3.050,0.163,0.003,-0.1,-0.5,-5.3,23.394,-0.050,2.742,AVOID,1,2.02,1
68.70,16.783,2.742,-3.050,0.163,0.003,-0.1,-0.5,-5.1,23.378,-0.050,2.742,AVOID,1,2.03,1
68.80,16.799,2.741,-3.049,0.163,0.003,-0.1,-0.5,-5.0,23.362,-0.049,2.741,AVOID,1,2.04,1
68.90,16.812,2.740,-3.049,0.163,0.003,-0.1,-0.5,-4.8,23.349,-0.049,2.740,AVOID,1,2.05,1
69.00,16.829,2.739,-3.048,0.163,0.003,-0.0,-0.5,-4.6,23.333,-0.048,2.739,AVOID,1,2.07,1
69.10,16.845,2.738,-3.048,0.163,0.003,-0.0,-0.5,-4.5,23.316,-0.048,2.738,AVOID,1,2.08,1
69.20,16.861,2.737,-3.048,0.163,0.003,-0.0,-0.5,-4.3,23.300,-0.048,2.737,AVOID,1,2.09,1
69.30,16.878,2.736,-3.047,0.164,0.003,0.0,-0.5,-4.1,23.284,-0.047,2.736,AVOID,1,2.10,1
69.40,16.894,2.735,-3.047,0.164,0.003,0.0,-0.5,-4.0,23.267,-0.047,2.735,AVOID,1,2.11,1
69.50,16.910,2.735,-3.046,0.164,0.003,0.0,-0.4,-4.0,23.251,-0.046,2.735,AVOID,1,21.99,1
69.60,16.927,2.734,-3.046,0.163,0.003,0.0,-0.4,-4.1,23.235,-0.046,2.734,AVOID,1,21.97,1
